[
  {
    "name": "Corpus Christi Catholic School",
    "suburb": "BELLERIVE",
    "state": "TAS",
    "postcode": "7018",
    "sector": "Catholic",
    "type": "Primary",
    "latitude": -42.871256,
    "longitude": 147.371473
  },
  {
    "name": "Fahan School",
    "suburb": "SANDY BAY",
    "state": "TAS",
    "postcode": "7005",
    "sector": "Independent",
    "type": "Combined",
    "latitude": -42.91615827,
    "longitude": 147.35276438
  },
  {
    "name": "Geneva Christian College",
    "suburb": "LATROBE",
    "state": "TAS",
    "postcode": "7307",
    "sector": "Independent",
    "type": "Combined",
    "latitude": -41.226741,
    "longitude": 146.438726
  },
  {
    "name": "Holy Rosary Catholic School",
    "suburb": "CLAREMONT",
    "state": "TAS",
    "postcode": "7011",
    "sector": "Catholic",
    "type": "Primary",
    "latitude": -42.789375,
    "longitude": 147.248306
  },
  {
    "name": "Immaculate Heart of Mary Catholic School",
    "suburb": "LENAH VALLEY",
    "state": "TAS",
    "postcode": "7008",
    "sector": "Catholic",
    "type": "Primary",
    "latitude": -42.865543,
    "longitude": 147.290159
  },
  {
    "name": "John Calvin School",
    "suburb": "LAUNCESTON",
    "state": "TAS",
    "postcode": "7250",
    "sector": "Independent",
    "type": "Combined",
    "latitude": -41.447919,
    "longitude": 147.144799
  },
  {
    "name": "Larmenier Catholic School",
    "suburb": "ST LEONARDS",
    "state": "TAS",
    "postcode": "7250",
    "sector": "Catholic",
    "type": "Primary",
    "latitude": -41.460784,
    "longitude": 147.194752
  },
  {
    "name": "Launceston Church Grammar School",
    "suburb": "MOWBRAY",
    "state": "TAS",
    "postcode": "7248",
    "sector": "Independent",
    "type": "Secondary",
    "latitude": -41.408156,
    "longitude": 147.128813
  },
  {
    "name": "St James Catholic College",
    "suburb": "CYGNET",
    "state": "TAS",
    "postcode": "7112",
    "sector": "Catholic",
    "type": "Combined",
    "latitude": -43.161812,
    "longitude": 147.075798
  },
  {
    "name": "Our Lady of Lourdes Catholic School",
    "suburb": "DEVONPORT",
    "state": "TAS",
    "postcode": "7310",
    "sector": "Catholic",
    "type": "Primary",
    "latitude": -41.18021,
    "longitude": 146.355196
  },
  {
    "name": "Our Lady of Mercy Catholic School",
    "suburb": "DELORAINE",
    "state": "TAS",
    "postcode": "7304",
    "sector": "Catholic",
    "type": "Primary",
    "latitude": -41.525172,
    "longitude": 146.64995
  },
  {
    "name": "Sacred Heart Catholic School",
    "suburb": "ULVERSTONE",
    "state": "TAS",
    "postcode": "7315",
    "sector": "Catholic",
    "type": "Primary",
    "latitude": -41.155798,
    "longitude": 146.186851
  },
  {
    "name": "Sacred Heart Catholic School",
    "suburb": "GEEVESTON",
    "state": "TAS",
    "postcode": "7116",
    "sector": "Catholic",
    "type": "Primary",
    "latitude": -43.165474,
    "longitude": 146.943967
  },
  {
    "name": "St Aloysius Catholic College - Kingston Beach Campus",
    "suburb": "KINGSTON BEACH",
    "state": "TAS",
    "postcode": "7050",
    "sector": "Catholic",
    "type": "Combined",
    "latitude": -42.99075,
    "longitude": 147.322982
  },
  {
    "name": "St Anthony's Catholic School",
    "suburb": "RIVERSIDE",
    "state": "TAS",
    "postcode": "7250",
    "sector": "Catholic",
    "type": "Primary",
    "latitude": -41.4062,
    "longitude": 147.095
  },
  {
    "name": "St Peter Chanel Catholic School",
    "suburb": "SMITHTON",
    "state": "TAS",
    "postcode": "7330",
    "sector": "Catholic",
    "type": "Primary",
    "latitude": -40.845638,
    "longitude": 145.131883
  },
  {
    "name": "St Brigid's Catholic School",
    "suburb": "NEW NORFOLK",
    "state": "TAS",
    "postcode": "7140",
    "sector": "Catholic",
    "type": "Primary",
    "latitude": -42.78063,
    "longitude": 147.056171
  },
  {
    "name": "St Brigid's Catholic School",
    "suburb": "WYNYARD",
    "state": "TAS",
    "postcode": "7325",
    "sector": "Catholic",
    "type": "Primary",
    "latitude": -40.988286,
    "longitude": 145.726855
  },
  {
    "name": "St Cuthbert's Catholic School",
    "suburb": "LINDISFARNE",
    "state": "TAS",
    "postcode": "7015",
    "sector": "Catholic",
    "type": "Primary",
    "latitude": -42.843192,
    "longitude": 147.355348
  },
  {
    "name": "St John's Catholic School",
    "suburb": "RICHMOND",
    "state": "TAS",
    "postcode": "7025",
    "sector": "Catholic",
    "type": "Primary",
    "latitude": -42.733415,
    "longitude": 147.441563
  },
  {
    "name": "St Joseph's Catholic School",
    "suburb": "ROSEBERY",
    "state": "TAS",
    "postcode": "7470",
    "sector": "Catholic",
    "type": "Primary",
    "latitude": -41.780321,
    "longitude": 145.543953
  },
  {
    "name": "St Joseph's Catholic School",
    "suburb": "QUEENSTOWN",
    "state": "TAS",
    "postcode": "7467",
    "sector": "Catholic",
    "type": "Primary",
    "latitude": -42.081342,
    "longitude": 145.559515
  },
  {
    "name": "St Mary's College",
    "suburb": "HOBART",
    "state": "TAS",
    "postcode": "7000",
    "sector": "Catholic",
    "type": "Combined",
    "latitude": -42.881808,
    "longitude": 147.319687
  },
  {
    "name": "St Patrick's Catholic School",
    "suburb": "LATROBE",
    "state": "TAS",
    "postcode": "7307",
    "sector": "Catholic",
    "type": "Primary",
    "latitude": -41.235575,
    "longitude": 146.418418
  },
  {
    "name": "St Therese's Catholic School",
    "suburb": "MOONAH",
    "state": "TAS",
    "postcode": "7009",
    "sector": "Catholic",
    "type": "Primary",
    "latitude": -42.846795,
    "longitude": 147.290228
  },
  {
    "name": "Hilliard Christian School",
    "suburb": "WEST MOONAH",
    "state": "TAS",
    "postcode": "7009",
    "sector": "Independent",
    "type": "Combined",
    "latitude": -42.853786,
    "longitude": 147.28761
  },
  {
    "name": "Star of the Sea Catholic College",
    "suburb": "GEORGE TOWN",
    "state": "TAS",
    "postcode": "7253",
    "sector": "Catholic",
    "type": "Combined",
    "latitude": -41.107781,
    "longitude": 146.829593
  },
  {
    "name": "Stella Maris Catholic School",
    "suburb": "BURNIE",
    "state": "TAS",
    "postcode": "7320",
    "sector": "Catholic",
    "type": "Primary",
    "latitude": -41.051103,
    "longitude": 145.887728
  },
  {
    "name": "The Friends' School",
    "suburb": "NORTH HOBART",
    "state": "TAS",
    "postcode": "7000",
    "sector": "Independent",
    "type": "Combined",
    "latitude": -42.869285,
    "longitude": 147.313375
  },
  {
    "name": "The Hutchins School",
    "suburb": "SANDY BAY",
    "state": "TAS",
    "postcode": "7005",
    "sector": "Independent",
    "type": "Combined",
    "latitude": -42.905952,
    "longitude": 147.330242
  },
  {
    "name": "The Cottage School",
    "suburb": "BELLERIVE",
    "state": "TAS",
    "postcode": "7018",
    "sector": "Independent",
    "type": "Primary",
    "latitude": -42.875405,
    "longitude": 147.367494
  },
  {
    "name": "Launceston Christian School",
    "suburb": "RIVERSIDE",
    "state": "TAS",
    "postcode": "7250",
    "sector": "Independent",
    "type": "Combined",
    "latitude": -41.401842,
    "longitude": 147.090571
  },
  {
    "name": "Leighland Christian School",
    "suburb": "ULVERSTONE",
    "state": "TAS",
    "postcode": "7315",
    "sector": "Independent",
    "type": "Secondary",
    "latitude": -41.153547,
    "longitude": 146.195067
  },
  {
    "name": "North West Christian School",
    "suburb": "PENGUIN",
    "state": "TAS",
    "postcode": "7316",
    "sector": "Independent",
    "type": "Combined",
    "latitude": -41.123571,
    "longitude": 146.080384
  },
  {
    "name": "St Michael's Collegiate School",
    "suburb": "HOBART",
    "state": "TAS",
    "postcode": "7000",
    "sector": "Independent",
    "type": "Combined",
    "latitude": -42.888185,
    "longitude": 147.323435
  },
  {
    "name": "Scotch Oakburn College",
    "suburb": "NEWSTEAD",
    "state": "TAS",
    "postcode": "7250",
    "sector": "Independent",
    "type": "Combined",
    "latitude": -41.449213,
    "longitude": 147.168873
  },
  {
    "name": "John Paul II Catholic School",
    "suburb": "CLARENDON VALE",
    "state": "TAS",
    "postcode": "7019",
    "sector": "Catholic",
    "type": "Primary",
    "latitude": -42.8945,
    "longitude": 147.447
  },
  {
    "name": "The Launceston Preparatory School",
    "suburb": "LAUNCESTON",
    "state": "TAS",
    "postcode": "7250",
    "sector": "Independent",
    "type": "Primary",
    "latitude": -41.4374,
    "longitude": 147.158
  },
  {
    "name": "Eastside Lutheran College",
    "suburb": "WARRANE",
    "state": "TAS",
    "postcode": "7018",
    "sector": "Independent",
    "type": "Combined",
    "latitude": -42.851645,
    "longitude": 147.383845
  },
  {
    "name": "St Thomas More's Catholic School",
    "suburb": "NEWSTEAD",
    "state": "TAS",
    "postcode": "7250",
    "sector": "Catholic",
    "type": "Primary",
    "latitude": -41.44512,
    "longitude": 147.157534
  },
  {
    "name": "St Paul's Catholic School",
    "suburb": "BRIDGEWATER",
    "state": "TAS",
    "postcode": "7030",
    "sector": "Catholic",
    "type": "Primary",
    "latitude": -42.737339,
    "longitude": 147.247605
  },
  {
    "name": "Circular Head Christian School",
    "suburb": "SMITHTON",
    "state": "TAS",
    "postcode": "7330",
    "sector": "Independent",
    "type": "Combined",
    "latitude": -40.8497,
    "longitude": 145.118
  },
  {
    "name": "Southern Christian College",
    "suburb": "KINGSTON",
    "state": "TAS",
    "postcode": "7050",
    "sector": "Independent",
    "type": "Combined",
    "latitude": -42.990905,
    "longitude": 147.307777
  },
  {
    "name": "Brooks High School",
    "suburb": "ROCHERLEA",
    "state": "TAS",
    "postcode": "7248",
    "sector": "Government",
    "type": "Secondary",
    "latitude": -41.37813391,
    "longitude": 147.12135989
  },
  {
    "name": "Flinders Island District High School",
    "suburb": "WHITEMARK",
    "state": "TAS",
    "postcode": "7255",
    "sector": "Government",
    "type": "Combined",
    "latitude": -40.11254151,
    "longitude": 148.03486284
  },
  {
    "name": "Lilydale District School",
    "suburb": "LILYDALE",
    "state": "TAS",
    "postcode": "7268",
    "sector": "Government",
    "type": "Combined",
    "latitude": -41.25251745,
    "longitude": 147.21598294
  },
  {
    "name": "Ravenswood Heights Primary School",
    "suburb": "RAVENSWOOD",
    "state": "TAS",
    "postcode": "7250",
    "sector": "Government",
    "type": "Primary",
    "latitude": -41.41878768,
    "longitude": 147.17536832
  },
  {
    "name": "Scottsdale High School",
    "suburb": "SCOTTSDALE",
    "state": "TAS",
    "postcode": "7260",
    "sector": "Government",
    "type": "Secondary",
    "latitude": -41.1546,
    "longitude": 147.51
  },
  {
    "name": "Parklands High School",
    "suburb": "ROMAINE",
    "state": "TAS",
    "postcode": "7320",
    "sector": "Government",
    "type": "Secondary",
    "latitude": -41.07905504,
    "longitude": 145.90176001
  },
  {
    "name": "Reece High School",
    "suburb": "DEVONPORT",
    "state": "TAS",
    "postcode": "7310",
    "sector": "Government",
    "type": "Secondary",
    "latitude": -41.189,
    "longitude": 146.352
  },
  {
    "name": "Ulverstone Secondary College",
    "suburb": "ULVERSTONE",
    "state": "TAS",
    "postcode": "7315",
    "sector": "Government",
    "type": "Secondary",
    "latitude": -41.16325954,
    "longitude": 146.17082335
  },
  {
    "name": "Wynyard High School",
    "suburb": "WYNYARD",
    "state": "TAS",
    "postcode": "7325",
    "sector": "Government",
    "type": "Secondary",
    "latitude": -40.98627358,
    "longitude": 145.71764283
  },
  {
    "name": "Cosgrove High School",
    "suburb": "GLENORCHY",
    "state": "TAS",
    "postcode": "7010",
    "sector": "Government",
    "type": "Secondary",
    "latitude": -42.83650615,
    "longitude": 147.28318696
  },
  {
    "name": "Dover District School",
    "suburb": "DOVER",
    "state": "TAS",
    "postcode": "7117",
    "sector": "Government",
    "type": "Combined",
    "latitude": -43.31008295,
    "longitude": 147.01303372
  },
  {
    "name": "Geeveston Primary School",
    "suburb": "GEEVESTON",
    "state": "TAS",
    "postcode": "7116",
    "sector": "Government",
    "type": "Primary",
    "latitude": -43.16224412,
    "longitude": 146.92212626
  },
  {
    "name": "Huonville High School",
    "suburb": "HUONVILLE",
    "state": "TAS",
    "postcode": "7109",
    "sector": "Government",
    "type": "Secondary",
    "latitude": -43.02374508,
    "longitude": 147.04694878
  },
  {
    "name": "Bayview Secondary College",
    "suburb": "ROKEBY",
    "state": "TAS",
    "postcode": "7019",
    "sector": "Government",
    "type": "Secondary",
    "latitude": -42.89719843,
    "longitude": 147.44500423
  },
  {
    "name": "Bothwell District High School",
    "suburb": "BOTHWELL",
    "state": "TAS",
    "postcode": "7030",
    "sector": "Government",
    "type": "Combined",
    "latitude": -42.38402831,
    "longitude": 147.01571956
  },
  {
    "name": "Deloraine High School",
    "suburb": "DELORAINE",
    "state": "TAS",
    "postcode": "7304",
    "sector": "Government",
    "type": "Secondary",
    "latitude": -41.52974888,
    "longitude": 146.66018027
  },
  {
    "name": "Glenora District School",
    "suburb": "GLENORA",
    "state": "TAS",
    "postcode": "7140",
    "sector": "Government",
    "type": "Combined",
    "latitude": -42.69690112,
    "longitude": 146.88944893
  },
  {
    "name": "New Norfolk High School",
    "suburb": "NEW NORFOLK",
    "state": "TAS",
    "postcode": "7140",
    "sector": "Government",
    "type": "Secondary",
    "latitude": -42.78854201,
    "longitude": 147.06123199
  },
  {
    "name": "Oatlands District High School",
    "suburb": "OATLANDS",
    "state": "TAS",
    "postcode": "7120",
    "sector": "Government",
    "type": "Combined",
    "latitude": -42.30055552,
    "longitude": 147.37080165
  },
  {
    "name": "Ouse District School",
    "suburb": "OUSE",
    "state": "TAS",
    "postcode": "7140",
    "sector": "Government",
    "type": "Primary",
    "latitude": -42.48152312,
    "longitude": 146.70746597
  },
  {
    "name": "Rosebery District School",
    "suburb": "ROSEBERY",
    "state": "TAS",
    "postcode": "7470",
    "sector": "Government",
    "type": "Combined",
    "latitude": -41.77912684,
    "longitude": 145.54247225
  },
  {
    "name": "St Helens District High School",
    "suburb": "ST HELENS",
    "state": "TAS",
    "postcode": "7216",
    "sector": "Government",
    "type": "Combined",
    "latitude": -41.32453944,
    "longitude": 148.24629738
  },
  {
    "name": "St Marys District School",
    "suburb": "ST MARYS",
    "state": "TAS",
    "postcode": "7215",
    "sector": "Government",
    "type": "Combined",
    "latitude": -41.58478994,
    "longitude": 148.18939889
  },
  {
    "name": "Triabunna District School",
    "suburb": "TRIABUNNA",
    "state": "TAS",
    "postcode": "7190",
    "sector": "Government",
    "type": "Combined",
    "latitude": -42.50742508,
    "longitude": 147.91106789
  },
  {
    "name": "Burnie High School",
    "suburb": "COOEE",
    "state": "TAS",
    "postcode": "7320",
    "sector": "Government",
    "type": "Secondary",
    "latitude": -41.0415376,
    "longitude": 145.86646528
  },
  {
    "name": "Campbell Town District High School",
    "suburb": "CAMPBELL TOWN",
    "state": "TAS",
    "postcode": "7210",
    "sector": "Government",
    "type": "Combined",
    "latitude": -41.92446399,
    "longitude": 147.49096762
  },
  {
    "name": "Cressy District High School",
    "suburb": "CRESSY",
    "state": "TAS",
    "postcode": "7302",
    "sector": "Government",
    "type": "Combined",
    "latitude": -41.69093755,
    "longitude": 147.0771548
  },
  {
    "name": "Dunalley Primary School",
    "suburb": "DUNALLEY",
    "state": "TAS",
    "postcode": "7177",
    "sector": "Government",
    "type": "Primary",
    "latitude": -42.88518675,
    "longitude": 147.81215862
  },
  {
    "name": "Exeter High School",
    "suburb": "EXETER",
    "state": "TAS",
    "postcode": "7275",
    "sector": "Government",
    "type": "Secondary",
    "latitude": -41.30062736,
    "longitude": 146.95752176
  },
  {
    "name": "King Island District High School",
    "suburb": "CURRIE",
    "state": "TAS",
    "postcode": "7256",
    "sector": "Government",
    "type": "Combined",
    "latitude": -39.92665469,
    "longitude": 143.8559413
  },
  {
    "name": "Kingston High School",
    "suburb": "KINGSTON",
    "state": "TAS",
    "postcode": "7050",
    "sector": "Government",
    "type": "Secondary",
    "latitude": -42.97371542,
    "longitude": 147.30813147
  },
  {
    "name": "Kings Meadows High School",
    "suburb": "KINGS MEADOWS",
    "state": "TAS",
    "postcode": "7249",
    "sector": "Government",
    "type": "Secondary",
    "latitude": -41.47386659,
    "longitude": 147.15956905
  },
  {
    "name": "Prospect High School",
    "suburb": "PROSPECT",
    "state": "TAS",
    "postcode": "7250",
    "sector": "Government",
    "type": "Secondary",
    "latitude": -41.47580035,
    "longitude": 147.13093189
  },
  {
    "name": "Riverside High School",
    "suburb": "RIVERSIDE",
    "state": "TAS",
    "postcode": "7250",
    "sector": "Government",
    "type": "Secondary",
    "latitude": -41.40905097,
    "longitude": 147.09955797
  },
  {
    "name": "Smithton High School",
    "suburb": "SMITHTON",
    "state": "TAS",
    "postcode": "7330",
    "sector": "Government",
    "type": "Secondary",
    "latitude": -40.83816677,
    "longitude": 145.11644883
  },
  {
    "name": "Sorell School",
    "suburb": "SORELL",
    "state": "TAS",
    "postcode": "7172",
    "sector": "Government",
    "type": "Combined",
    "latitude": -42.78592321,
    "longitude": 147.56062331
  },
  {
    "name": "Taroona High School",
    "suburb": "TAROONA",
    "state": "TAS",
    "postcode": "7053",
    "sector": "Government",
    "type": "Secondary",
    "latitude": -42.94341,
    "longitude": 147.3559
  },
  {
    "name": "Tasman District School",
    "suburb": "NUBEENA",
    "state": "TAS",
    "postcode": "7184",
    "sector": "Government",
    "type": "Combined",
    "latitude": -43.09833639,
    "longitude": 147.74706551
  },
  {
    "name": "Winnaleah District High School",
    "suburb": "WINNALEAH",
    "state": "TAS",
    "postcode": "7265",
    "sector": "Government",
    "type": "Combined",
    "latitude": -41.096531,
    "longitude": 147.822868
  },
  {
    "name": "Woodbridge School",
    "suburb": "WOODBRIDGE",
    "state": "TAS",
    "postcode": "7162",
    "sector": "Government",
    "type": "Combined",
    "latitude": -43.164652,
    "longitude": 147.239683
  },
  {
    "name": "Yolla District School",
    "suburb": "YOLLA",
    "state": "TAS",
    "postcode": "7325",
    "sector": "Government",
    "type": "Combined",
    "latitude": -41.12266948,
    "longitude": 145.72009949
  },
  {
    "name": "North West Support School",
    "suburb": "ACTON",
    "state": "TAS",
    "postcode": "7320",
    "sector": "Government",
    "type": "Combined",
    "latitude": -41.072282,
    "longitude": 145.893098
  },
  {
    "name": "Invermay Primary School",
    "suburb": "INVERMAY",
    "state": "TAS",
    "postcode": "7248",
    "sector": "Government",
    "type": "Primary",
    "latitude": -41.42163515,
    "longitude": 147.13138403
  },
  {
    "name": "Mowbray Heights Primary School",
    "suburb": "MOWBRAY",
    "state": "TAS",
    "postcode": "7248",
    "sector": "Government",
    "type": "Primary",
    "latitude": -41.40275864,
    "longitude": 147.13341299
  },
  {
    "name": "Rose Bay High School",
    "suburb": "ROSE BAY",
    "state": "TAS",
    "postcode": "7015",
    "sector": "Government",
    "type": "Secondary",
    "latitude": -42.86154099,
    "longitude": 147.35891671
  },
  {
    "name": "Queechy High School",
    "suburb": "NORWOOD",
    "state": "TAS",
    "postcode": "7250",
    "sector": "Government",
    "type": "Secondary",
    "latitude": -41.45195332,
    "longitude": 147.17607496
  },
  {
    "name": "Devonport High School",
    "suburb": "DEVONPORT",
    "state": "TAS",
    "postcode": "7310",
    "sector": "Government",
    "type": "Secondary",
    "latitude": -41.17795098,
    "longitude": 146.34877035
  },
  {
    "name": "Sacred Heart Catholic School",
    "suburb": "LAUNCESTON",
    "state": "TAS",
    "postcode": "7250",
    "sector": "Catholic",
    "type": "Primary",
    "latitude": -41.445,
    "longitude": 147.133337
  },
  {
    "name": "Albuera Street Primary School",
    "suburb": "BATTERY POINT",
    "state": "TAS",
    "postcode": "7004",
    "sector": "Government",
    "type": "Primary",
    "latitude": -42.89123278,
    "longitude": 147.32588298
  },
  {
    "name": "Campbell Street Primary School",
    "suburb": "NORTH HOBART",
    "state": "TAS",
    "postcode": "7000",
    "sector": "Government",
    "type": "Primary",
    "latitude": -42.87254263,
    "longitude": 147.32268319
  },
  {
    "name": "Goulburn Street Primary School",
    "suburb": "WEST HOBART",
    "state": "TAS",
    "postcode": "7000",
    "sector": "Government",
    "type": "Primary",
    "latitude": -42.88779991,
    "longitude": 147.31692503
  },
  {
    "name": "Lansdowne Crescent Primary School",
    "suburb": "WEST HOBART",
    "state": "TAS",
    "postcode": "7000",
    "sector": "Government",
    "type": "Primary",
    "latitude": -42.882125,
    "longitude": 147.30871
  },
  {
    "name": "Mount Stuart Primary School",
    "suburb": "MOUNT STUART",
    "state": "TAS",
    "postcode": "7000",
    "sector": "Government",
    "type": "Primary",
    "latitude": -42.87507847,
    "longitude": 147.29906955
  },
  {
    "name": "South Hobart Primary School",
    "suburb": "SOUTH HOBART",
    "state": "TAS",
    "postcode": "7004",
    "sector": "Government",
    "type": "Primary",
    "latitude": -42.891817,
    "longitude": 147.309568
  },
  {
    "name": "Princes Street Primary School",
    "suburb": "SANDY BAY",
    "state": "TAS",
    "postcode": "7005",
    "sector": "Government",
    "type": "Primary",
    "latitude": -42.89924147,
    "longitude": 147.31840447
  },
  {
    "name": "Waimea Heights Primary School",
    "suburb": "SANDY BAY",
    "state": "TAS",
    "postcode": "7005",
    "sector": "Government",
    "type": "Primary",
    "latitude": -42.90892028808594,
    "longitude": 147.3369140625
  },
  {
    "name": "Taroona Primary School",
    "suburb": "TAROONA",
    "state": "TAS",
    "postcode": "7053",
    "sector": "Government",
    "type": "Primary",
    "latitude": -42.94315177,
    "longitude": 147.3527989
  },
  {
    "name": "Mount Nelson Primary School",
    "suburb": "MOUNT NELSON",
    "state": "TAS",
    "postcode": "7007",
    "sector": "Government",
    "type": "Primary",
    "latitude": -42.91290931,
    "longitude": 147.32237076
  },
  {
    "name": "Lenah Valley Primary School",
    "suburb": "LENAH VALLEY",
    "state": "TAS",
    "postcode": "7008",
    "sector": "Government",
    "type": "Primary",
    "latitude": -42.860997,
    "longitude": 147.289568
  },
  {
    "name": "New Town Primary School",
    "suburb": "NEW TOWN",
    "state": "TAS",
    "postcode": "7008",
    "sector": "Government",
    "type": "Primary",
    "latitude": -42.85748163,
    "longitude": 147.30001235
  },
  {
    "name": "Bowen Road Primary School",
    "suburb": "MOONAH",
    "state": "TAS",
    "postcode": "7009",
    "sector": "Government",
    "type": "Primary",
    "latitude": -42.84736447,
    "longitude": 147.30763733
  },
  {
    "name": "Goodwood Primary School",
    "suburb": "DERWENT PARK",
    "state": "TAS",
    "postcode": "7009",
    "sector": "Government",
    "type": "Primary",
    "latitude": -42.83224516,
    "longitude": 147.29255312
  },
  {
    "name": "Moonah Primary School",
    "suburb": "DERWENT PARK",
    "state": "TAS",
    "postcode": "7009",
    "sector": "Government",
    "type": "Primary",
    "latitude": -42.83809219,
    "longitude": 147.29646337
  },
  {
    "name": "Springfield Gardens Primary School",
    "suburb": "WEST MOONAH",
    "state": "TAS",
    "postcode": "7009",
    "sector": "Government",
    "type": "Primary",
    "latitude": -42.84764764,
    "longitude": 147.27594789
  },
  {
    "name": "Rosetta Primary School",
    "suburb": "ROSETTA",
    "state": "TAS",
    "postcode": "7010",
    "sector": "Government",
    "type": "Primary",
    "latitude": -42.82210911,
    "longitude": 147.25730077
  },
  {
    "name": "Collinsvale Primary School",
    "suburb": "COLLINSVALE",
    "state": "TAS",
    "postcode": "7012",
    "sector": "Government",
    "type": "Primary",
    "latitude": -42.83667338,
    "longitude": 147.19839968
  },
  {
    "name": "Lindisfarne North Primary School",
    "suburb": "GEILSTON BAY",
    "state": "TAS",
    "postcode": "7015",
    "sector": "Government",
    "type": "Primary",
    "latitude": -42.838657,
    "longitude": 147.350274
  },
  {
    "name": "Lindisfarne Primary School",
    "suburb": "LINDISFARNE",
    "state": "TAS",
    "postcode": "7015",
    "sector": "Government",
    "type": "Primary",
    "latitude": -42.85201252,
    "longitude": 147.36372444
  },
  {
    "name": "Risdon Vale Primary School",
    "suburb": "RISDON VALE",
    "state": "TAS",
    "postcode": "7016",
    "sector": "Government",
    "type": "Primary",
    "latitude": -42.81259813,
    "longitude": 147.35329662
  },
  {
    "name": "Bellerive Primary School",
    "suburb": "BELLERIVE",
    "state": "TAS",
    "postcode": "7018",
    "sector": "Government",
    "type": "Primary",
    "latitude": -42.87227607,
    "longitude": 147.37011063
  },
  {
    "name": "Clarence High School",
    "suburb": "BELLERIVE",
    "state": "TAS",
    "postcode": "7018",
    "sector": "Government",
    "type": "Secondary",
    "latitude": -42.877901,
    "longitude": 147.38924026
  },
  {
    "name": "Howrah Primary School",
    "suburb": "HOWRAH",
    "state": "TAS",
    "postcode": "7018",
    "sector": "Government",
    "type": "Primary",
    "latitude": -42.88107919,
    "longitude": 147.40211048
  },
  {
    "name": "Montagu Bay Primary School",
    "suburb": "MONTAGU BAY",
    "state": "TAS",
    "postcode": "7018",
    "sector": "Government",
    "type": "Primary",
    "latitude": -42.86449013,
    "longitude": 147.35223353
  },
  {
    "name": "Warrane Primary School",
    "suburb": "WARRANE",
    "state": "TAS",
    "postcode": "7018",
    "sector": "Government",
    "type": "Primary",
    "latitude": -42.86122275,
    "longitude": 147.38262197
  },
  {
    "name": "Clarendon Vale Primary School",
    "suburb": "CLARENDON VALE",
    "state": "TAS",
    "postcode": "7019",
    "sector": "Government",
    "type": "Primary",
    "latitude": -42.88738509,
    "longitude": 147.44439485
  },
  {
    "name": "Rokeby Primary School",
    "suburb": "ROKEBY",
    "state": "TAS",
    "postcode": "7019",
    "sector": "Government",
    "type": "Primary",
    "latitude": -42.89897973,
    "longitude": 147.43372383
  },
  {
    "name": "Lauderdale Primary School",
    "suburb": "LAUDERDALE",
    "state": "TAS",
    "postcode": "7021",
    "sector": "Government",
    "type": "Primary",
    "latitude": -42.905072,
    "longitude": 147.47854
  },
  {
    "name": "South Arm Primary School",
    "suburb": "SOUTH ARM",
    "state": "TAS",
    "postcode": "7022",
    "sector": "Government",
    "type": "Primary",
    "latitude": -43.02586187,
    "longitude": 147.42019695
  },
  {
    "name": "Richmond Primary School",
    "suburb": "RICHMOND",
    "state": "TAS",
    "postcode": "7025",
    "sector": "Government",
    "type": "Primary",
    "latitude": -42.73928054,
    "longitude": 147.43798461
  },
  {
    "name": "Campania District School",
    "suburb": "CAMPANIA",
    "state": "TAS",
    "postcode": "7026",
    "sector": "Government",
    "type": "Combined",
    "latitude": -42.66628398,
    "longitude": 147.42367813
  },
  {
    "name": "Glen Huon Primary School",
    "suburb": "GLEN HUON",
    "state": "TAS",
    "postcode": "7109",
    "sector": "Government",
    "type": "Primary",
    "latitude": -43.02813851,
    "longitude": 146.96237801
  },
  {
    "name": "Huonville Primary School",
    "suburb": "HUONVILLE",
    "state": "TAS",
    "postcode": "7109",
    "sector": "Government",
    "type": "Primary",
    "latitude": -43.02374508,
    "longitude": 147.04694878
  },
  {
    "name": "Cygnet Primary School",
    "suburb": "CYGNET",
    "state": "TAS",
    "postcode": "7112",
    "sector": "Government",
    "type": "Primary",
    "latitude": -43.15825931,
    "longitude": 147.07223964
  },
  {
    "name": "Franklin Primary School",
    "suburb": "FRANKLIN",
    "state": "TAS",
    "postcode": "7113",
    "sector": "Government",
    "type": "Primary",
    "latitude": -43.08553093,
    "longitude": 147.01185573
  },
  {
    "name": "Kingston Primary School",
    "suburb": "KINGSTON",
    "state": "TAS",
    "postcode": "7050",
    "sector": "Government",
    "type": "Primary",
    "latitude": -42.97934878,
    "longitude": 147.30991854
  },
  {
    "name": "Blackmans Bay Primary School",
    "suburb": "BLACKMANS BAY",
    "state": "TAS",
    "postcode": "7052",
    "sector": "Government",
    "type": "Primary",
    "latitude": -42.99699352,
    "longitude": 147.32126417
  },
  {
    "name": "Margate Primary School",
    "suburb": "MARGATE",
    "state": "TAS",
    "postcode": "7054",
    "sector": "Government",
    "type": "Primary",
    "latitude": -43.028852,
    "longitude": 147.262095
  },
  {
    "name": "Snug Primary School",
    "suburb": "SNUG",
    "state": "TAS",
    "postcode": "7054",
    "sector": "Government",
    "type": "Primary",
    "latitude": -43.06533258,
    "longitude": 147.25426938
  },
  {
    "name": "Bruny Island District School",
    "suburb": "ALONNAH",
    "state": "TAS",
    "postcode": "7150",
    "sector": "Government",
    "type": "Primary",
    "latitude": -43.31756067,
    "longitude": 147.24605186
  },
  {
    "name": "Cambridge Primary School",
    "suburb": "CAMBRIDGE",
    "state": "TAS",
    "postcode": "7170",
    "sector": "Government",
    "type": "Primary",
    "latitude": -42.83620708,
    "longitude": 147.44182458
  },
  {
    "name": "Evandale Primary School",
    "suburb": "EVANDALE",
    "state": "TAS",
    "postcode": "7212",
    "sector": "Government",
    "type": "Primary",
    "latitude": -41.567519,
    "longitude": 147.249153
  },
  {
    "name": "Bicheno Primary School",
    "suburb": "BICHENO",
    "state": "TAS",
    "postcode": "7215",
    "sector": "Government",
    "type": "Primary",
    "latitude": -41.87237979,
    "longitude": 148.30570234
  },
  {
    "name": "East Launceston Primary School",
    "suburb": "EAST LAUNCESTON",
    "state": "TAS",
    "postcode": "7250",
    "sector": "Government",
    "type": "Primary",
    "latitude": -41.44202283,
    "longitude": 147.1520445
  },
  {
    "name": "Glen Dhu Primary School",
    "suburb": "SOUTH LAUNCESTON",
    "state": "TAS",
    "postcode": "7249",
    "sector": "Government",
    "type": "Primary",
    "latitude": -41.45590244,
    "longitude": 147.1439905
  },
  {
    "name": "Norwood Primary School",
    "suburb": "NORWOOD",
    "state": "TAS",
    "postcode": "7250",
    "sector": "Government",
    "type": "Primary",
    "latitude": -41.46210661,
    "longitude": 147.17427556
  },
  {
    "name": "Punchbowl Primary School",
    "suburb": "NEWSTEAD",
    "state": "TAS",
    "postcode": "7250",
    "sector": "Government",
    "type": "Primary",
    "latitude": -41.45252801,
    "longitude": 147.16532986
  },
  {
    "name": "Riverside Primary School",
    "suburb": "RIVERSIDE",
    "state": "TAS",
    "postcode": "7250",
    "sector": "Government",
    "type": "Primary",
    "latitude": -41.41277009,
    "longitude": 147.10063288
  },
  {
    "name": "St Leonards Primary School",
    "suburb": "ST LEONARDS",
    "state": "TAS",
    "postcode": "7250",
    "sector": "Government",
    "type": "Primary",
    "latitude": -41.45970425,
    "longitude": 147.2003125
  },
  {
    "name": "Summerdale Primary School",
    "suburb": "SUMMERHILL",
    "state": "TAS",
    "postcode": "7250",
    "sector": "Government",
    "type": "Primary",
    "latitude": -41.46827258,
    "longitude": 147.12970713
  },
  {
    "name": "Trevallyn Primary School",
    "suburb": "TREVALLYN",
    "state": "TAS",
    "postcode": "7250",
    "sector": "Government",
    "type": "Primary",
    "latitude": -41.43814374,
    "longitude": 147.11466237
  },
  {
    "name": "Waverley Primary School",
    "suburb": "WAVERLEY",
    "state": "TAS",
    "postcode": "7250",
    "sector": "Government",
    "type": "Primary",
    "latitude": -41.43207254,
    "longitude": 147.19013249
  },
  {
    "name": "West Launceston Primary School",
    "suburb": "WEST LAUNCESTON",
    "state": "TAS",
    "postcode": "7250",
    "sector": "Government",
    "type": "Primary",
    "latitude": -41.44906993,
    "longitude": 147.12848365
  },
  {
    "name": "Youngtown Primary School",
    "suburb": "YOUNGTOWN",
    "state": "TAS",
    "postcode": "7249",
    "sector": "Government",
    "type": "Primary",
    "latitude": -41.482606,
    "longitude": 147.163844
  },
  {
    "name": "Port Dalrymple School",
    "suburb": "GEORGE TOWN",
    "state": "TAS",
    "postcode": "7253",
    "sector": "Government",
    "type": "Combined",
    "latitude": -41.09971856,
    "longitude": 146.82811512
  },
  {
    "name": "South George Town Primary School",
    "suburb": "GEORGE TOWN",
    "state": "TAS",
    "postcode": "7253",
    "sector": "Government",
    "type": "Primary",
    "latitude": -41.11362094,
    "longitude": 146.83363318
  },
  {
    "name": "Bridport Primary School",
    "suburb": "BRIDPORT",
    "state": "TAS",
    "postcode": "7262",
    "sector": "Government",
    "type": "Primary",
    "latitude": -41.00162041,
    "longitude": 147.38937093
  },
  {
    "name": "Ringarooma Primary School",
    "suburb": "RINGAROOMA",
    "state": "TAS",
    "postcode": "7263",
    "sector": "Government",
    "type": "Primary",
    "latitude": -41.24228469,
    "longitude": 147.73323945
  },
  {
    "name": "Scottsdale Primary School",
    "suburb": "SCOTTSDALE",
    "state": "TAS",
    "postcode": "7260",
    "sector": "Government",
    "type": "Primary",
    "latitude": -41.16034658,
    "longitude": 147.50665375
  },
  {
    "name": "Hagley Farm Primary School",
    "suburb": "HAGLEY",
    "state": "TAS",
    "postcode": "7292",
    "sector": "Government",
    "type": "Primary",
    "latitude": -41.52669149,
    "longitude": 146.90340231
  },
  {
    "name": "Orford Primary School",
    "suburb": "ORFORD",
    "state": "TAS",
    "postcode": "7190",
    "sector": "Government",
    "type": "Primary",
    "latitude": -42.56331933,
    "longitude": 147.87384235
  },
  {
    "name": "Swansea Primary School",
    "suburb": "SWANSEA",
    "state": "TAS",
    "postcode": "7190",
    "sector": "Government",
    "type": "Primary",
    "latitude": -42.12236781,
    "longitude": 148.07320103
  },
  {
    "name": "Bracknell Primary School",
    "suburb": "BRACKNELL",
    "state": "TAS",
    "postcode": "7302",
    "sector": "Government",
    "type": "Primary",
    "latitude": -41.65243695,
    "longitude": 146.93358694
  },
  {
    "name": "Perth Primary School",
    "suburb": "PERTH",
    "state": "TAS",
    "postcode": "7300",
    "sector": "Government",
    "type": "Primary",
    "latitude": -41.57317837,
    "longitude": 147.17437105
  },
  {
    "name": "Longford Primary School",
    "suburb": "LONGFORD",
    "state": "TAS",
    "postcode": "7301",
    "sector": "Government",
    "type": "Primary",
    "latitude": -41.59593583,
    "longitude": 147.11694321
  },
  {
    "name": "Westbury Primary School",
    "suburb": "WESTBURY",
    "state": "TAS",
    "postcode": "7303",
    "sector": "Government",
    "type": "Primary",
    "latitude": -41.53170299,
    "longitude": 146.83805102
  },
  {
    "name": "Deloraine Primary School",
    "suburb": "DELORAINE",
    "state": "TAS",
    "postcode": "7304",
    "sector": "Government",
    "type": "Primary",
    "latitude": -41.52867221,
    "longitude": 146.66271544
  },
  {
    "name": "Mole Creek Primary School",
    "suburb": "MOLE CREEK",
    "state": "TAS",
    "postcode": "7304",
    "sector": "Government",
    "type": "Primary",
    "latitude": -41.55845075,
    "longitude": 146.40554897
  },
  {
    "name": "Latrobe Primary School",
    "suburb": "LATROBE",
    "state": "TAS",
    "postcode": "7307",
    "sector": "Government",
    "type": "Primary",
    "latitude": -41.23961898,
    "longitude": 146.41601313
  },
  {
    "name": "Sheffield School",
    "suburb": "SHEFFIELD",
    "state": "TAS",
    "postcode": "7306",
    "sector": "Government",
    "type": "Combined",
    "latitude": -41.38460175,
    "longitude": 146.3245746
  },
  {
    "name": "Latrobe High School",
    "suburb": "LATROBE",
    "state": "TAS",
    "postcode": "7307",
    "sector": "Government",
    "type": "Secondary",
    "latitude": -41.23650373,
    "longitude": 146.42525319
  },
  {
    "name": "Sassafras Primary School",
    "suburb": "SASSAFRAS",
    "state": "TAS",
    "postcode": "7307",
    "sector": "Government",
    "type": "Primary",
    "latitude": -41.2871478,
    "longitude": 146.50331382
  },
  {
    "name": "Devonport Primary School",
    "suburb": "DEVONPORT",
    "state": "TAS",
    "postcode": "7310",
    "sector": "Government",
    "type": "Primary",
    "latitude": -41.18023239,
    "longitude": 146.35740161
  },
  {
    "name": "East Devonport Primary School",
    "suburb": "EAST DEVONPORT",
    "state": "TAS",
    "postcode": "7310",
    "sector": "Government",
    "type": "Primary",
    "latitude": -41.17792747,
    "longitude": 146.37211466
  },
  {
    "name": "Forth Primary School",
    "suburb": "FORTH",
    "state": "TAS",
    "postcode": "7310",
    "sector": "Government",
    "type": "Primary",
    "latitude": -41.19291547,
    "longitude": 146.24858234
  },
  {
    "name": "Hillcrest Primary School",
    "suburb": "DEVONPORT",
    "state": "TAS",
    "postcode": "7310",
    "sector": "Government",
    "type": "Primary",
    "latitude": -41.1870573,
    "longitude": 146.33315893
  },
  {
    "name": "Miandetta Primary School",
    "suburb": "MIANDETTA",
    "state": "TAS",
    "postcode": "7310",
    "sector": "Government",
    "type": "Primary",
    "latitude": -41.1954,
    "longitude": 146.349
  },
  {
    "name": "Nixon Street Primary School",
    "suburb": "DEVONPORT",
    "state": "TAS",
    "postcode": "7310",
    "sector": "Government",
    "type": "Primary",
    "latitude": -41.1729974,
    "longitude": 146.33828234
  },
  {
    "name": "Spreyton Primary School",
    "suburb": "SPREYTON",
    "state": "TAS",
    "postcode": "7310",
    "sector": "Government",
    "type": "Primary",
    "latitude": -41.21202919,
    "longitude": 146.34585593
  },
  {
    "name": "Wilmot Primary School",
    "suburb": "WILMOT",
    "state": "TAS",
    "postcode": "7310",
    "sector": "Government",
    "type": "Primary",
    "latitude": -41.38699434,
    "longitude": 146.17536786
  },
  {
    "name": "East Ulverstone Primary School",
    "suburb": "ULVERSTONE",
    "state": "TAS",
    "postcode": "7315",
    "sector": "Government",
    "type": "Primary",
    "latitude": -41.15452656,
    "longitude": 146.19175434
  },
  {
    "name": "Sprent Primary School",
    "suburb": "SPRENT",
    "state": "TAS",
    "postcode": "7315",
    "sector": "Government",
    "type": "Primary",
    "latitude": -41.26294106,
    "longitude": 146.15942756
  },
  {
    "name": "Ulverstone Primary School",
    "suburb": "ULVERSTONE",
    "state": "TAS",
    "postcode": "7315",
    "sector": "Government",
    "type": "Primary",
    "latitude": -41.16076112,
    "longitude": 146.16414432
  },
  {
    "name": "West Ulverstone Primary School",
    "suburb": "WEST ULVERSTONE",
    "state": "TAS",
    "postcode": "7315",
    "sector": "Government",
    "type": "Primary",
    "latitude": -41.14816145,
    "longitude": 146.15951375
  },
  {
    "name": "Riana Primary School",
    "suburb": "RIANA",
    "state": "TAS",
    "postcode": "7316",
    "sector": "Government",
    "type": "Primary",
    "latitude": -41.20249009,
    "longitude": 145.9989877
  },
  {
    "name": "Burnie Primary School",
    "suburb": "PARK GROVE",
    "state": "TAS",
    "postcode": "7320",
    "sector": "Government",
    "type": "Primary",
    "latitude": -41.0584334,
    "longitude": 145.88530288
  },
  {
    "name": "Cooee Primary School",
    "suburb": "COOEE",
    "state": "TAS",
    "postcode": "7320",
    "sector": "Government",
    "type": "Primary",
    "latitude": -41.0415376,
    "longitude": 145.86646528
  },
  {
    "name": "Montello Primary School",
    "suburb": "MONTELLO",
    "state": "TAS",
    "postcode": "7320",
    "sector": "Government",
    "type": "Primary",
    "latitude": -41.05990677,
    "longitude": 145.89857951
  },
  {
    "name": "Boat Harbour Primary School",
    "suburb": "BOAT HARBOUR",
    "state": "TAS",
    "postcode": "7321",
    "sector": "Government",
    "type": "Primary",
    "latitude": -40.94562609,
    "longitude": 145.63535686
  },
  {
    "name": "Havenview Primary School",
    "suburb": "HAVENVIEW",
    "state": "TAS",
    "postcode": "7320",
    "sector": "Government",
    "type": "Primary",
    "latitude": -41.08386446,
    "longitude": 145.91116837
  },
  {
    "name": "Natone Primary School",
    "suburb": "NATONE",
    "state": "TAS",
    "postcode": "7321",
    "sector": "Government",
    "type": "Primary",
    "latitude": -41.17012891,
    "longitude": 145.92177351
  },
  {
    "name": "Ridgley Primary School",
    "suburb": "RIDGLEY",
    "state": "TAS",
    "postcode": "7321",
    "sector": "Government",
    "type": "Primary",
    "latitude": -41.13997773,
    "longitude": 145.8377718
  },
  {
    "name": "Table Cape Primary School",
    "suburb": "WYNYARD",
    "state": "TAS",
    "postcode": "7325",
    "sector": "Government",
    "type": "Primary",
    "latitude": -40.98316517,
    "longitude": 145.71486624
  },
  {
    "name": "Edith Creek Primary School",
    "suburb": "EDITH CREEK",
    "state": "TAS",
    "postcode": "7330",
    "sector": "Government",
    "type": "Primary",
    "latitude": -40.97052056,
    "longitude": 145.09340726
  },
  {
    "name": "Forest Primary School",
    "suburb": "FOREST",
    "state": "TAS",
    "postcode": "7330",
    "sector": "Government",
    "type": "Primary",
    "latitude": -40.84838284,
    "longitude": 145.24941532
  },
  {
    "name": "Redpa Primary School",
    "suburb": "REDPA",
    "state": "TAS",
    "postcode": "7330",
    "sector": "Government",
    "type": "Primary",
    "latitude": -40.932925,
    "longitude": 144.761834
  },
  {
    "name": "Smithton Primary School",
    "suburb": "SMITHTON",
    "state": "TAS",
    "postcode": "7330",
    "sector": "Government",
    "type": "Primary",
    "latitude": -40.84946046,
    "longitude": 145.11605256
  },
  {
    "name": "Stanley Primary School",
    "suburb": "STANLEY",
    "state": "TAS",
    "postcode": "7331",
    "sector": "Government",
    "type": "Primary",
    "latitude": -40.75956582,
    "longitude": 145.29098508
  },
  {
    "name": "Brighton Primary School",
    "suburb": "BRIGHTON",
    "state": "TAS",
    "postcode": "7030",
    "sector": "Government",
    "type": "Primary",
    "latitude": -42.69909438,
    "longitude": 147.25845801
  },
  {
    "name": "Bagdad Primary School",
    "suburb": "BAGDAD",
    "state": "TAS",
    "postcode": "7030",
    "sector": "Government",
    "type": "Primary",
    "latitude": -42.62489064,
    "longitude": 147.22295679
  },
  {
    "name": "Kempton Primary School",
    "suburb": "KEMPTON",
    "state": "TAS",
    "postcode": "7030",
    "sector": "Government",
    "type": "Primary",
    "latitude": -42.5311126,
    "longitude": 147.19913449
  },
  {
    "name": "Fairview Primary School",
    "suburb": "NEW NORFOLK",
    "state": "TAS",
    "postcode": "7140",
    "sector": "Government",
    "type": "Primary",
    "latitude": -42.77432027,
    "longitude": 147.05092241
  },
  {
    "name": "New Norfolk Primary School",
    "suburb": "NEW NORFOLK",
    "state": "TAS",
    "postcode": "7140",
    "sector": "Government",
    "type": "Primary",
    "latitude": -42.77900115,
    "longitude": 147.06366914
  },
  {
    "name": "Molesworth Primary School",
    "suburb": "MOLESWORTH",
    "state": "TAS",
    "postcode": "7140",
    "sector": "Government",
    "type": "Primary",
    "latitude": -42.80404026,
    "longitude": 147.15677869
  },
  {
    "name": "Westerway Primary School",
    "suburb": "WESTERWAY",
    "state": "TAS",
    "postcode": "7140",
    "sector": "Government",
    "type": "Primary",
    "latitude": -42.67762923,
    "longitude": 146.78735111
  },
  {
    "name": "Strahan Primary School",
    "suburb": "STRAHAN",
    "state": "TAS",
    "postcode": "7468",
    "sector": "Government",
    "type": "Primary",
    "latitude": -42.15342033,
    "longitude": 145.32034704
  },
  {
    "name": "Zeehan Primary School",
    "suburb": "ZEEHAN",
    "state": "TAS",
    "postcode": "7469",
    "sector": "Government",
    "type": "Primary",
    "latitude": -41.88801157,
    "longitude": 145.33959279
  },
  {
    "name": "Tarremah Steiner School",
    "suburb": "HUNTINGFIELD",
    "state": "TAS",
    "postcode": "7055",
    "sector": "Independent",
    "type": "Combined",
    "latitude": -42.997854,
    "longitude": 147.289813
  },
  {
    "name": "Australian Christian College - Burnie",
    "suburb": "SOMERSET",
    "state": "TAS",
    "postcode": "7322",
    "sector": "Independent",
    "type": "Combined",
    "latitude": -41.0444,
    "longitude": 145.81
  },
  {
    "name": "MacKillop Catholic College",
    "suburb": "MORNINGTON",
    "state": "TAS",
    "postcode": "7018",
    "sector": "Catholic",
    "type": "Secondary",
    "latitude": -42.857456,
    "longitude": 147.400625
  },
  {
    "name": "Devonport Christian School",
    "suburb": "DON",
    "state": "TAS",
    "postcode": "7310",
    "sector": "Independent",
    "type": "Primary",
    "latitude": -41.18196,
    "longitude": 146.3234
  },
  {
    "name": "St Finn Barr's Catholic Primary School",
    "suburb": "INVERMAY",
    "state": "TAS",
    "postcode": "7248",
    "sector": "Catholic",
    "type": "Primary",
    "latitude": -41.415572,
    "longitude": 147.132923
  },
  {
    "name": "Giant Steps Tasmania",
    "suburb": "DELORAINE",
    "state": "TAS",
    "postcode": "7304",
    "sector": "Independent",
    "type": "Combined",
    "latitude": -41.5225,
    "longitude": 146.652
  },
  {
    "name": "Dominic College",
    "suburb": "GLENORCHY",
    "state": "TAS",
    "postcode": "7010",
    "sector": "Catholic",
    "type": "Combined",
    "latitude": -42.848604,
    "longitude": 147.257738
  },
  {
    "name": "Mount Carmel College",
    "suburb": "SANDY BAY",
    "state": "TAS",
    "postcode": "7005",
    "sector": "Catholic",
    "type": "Combined",
    "latitude": -42.901946,
    "longitude": 147.33217
  },
  {
    "name": "Sacred Heart College",
    "suburb": "NEW TOWN",
    "state": "TAS",
    "postcode": "7008",
    "sector": "Catholic",
    "type": "Combined",
    "latitude": -42.86218,
    "longitude": 147.304645
  },
  {
    "name": "Dodges Ferry Primary School",
    "suburb": "DODGES FERRY",
    "state": "TAS",
    "postcode": "7173",
    "sector": "Government",
    "type": "Primary",
    "latitude": -42.84870944,
    "longitude": 147.62474666
  },
  {
    "name": "Exeter Primary School",
    "suburb": "EXETER",
    "state": "TAS",
    "postcode": "7275",
    "sector": "Government",
    "type": "Primary",
    "latitude": -41.29885674,
    "longitude": 146.95637398
  },
  {
    "name": "Illawarra Primary School",
    "suburb": "BLACKMANS BAY",
    "state": "TAS",
    "postcode": "7052",
    "sector": "Government",
    "type": "Primary",
    "latitude": -43.0086344,
    "longitude": 147.31937793
  },
  {
    "name": "OneSchool Global - Hobart Campus",
    "suburb": "CLAREMONT",
    "state": "TAS",
    "postcode": "7011",
    "sector": "Independent",
    "type": "Combined",
    "latitude": -42.797041,
    "longitude": 147.262784
  },
  {
    "name": "Beaconsfield Primary School",
    "suburb": "BEACONSFIELD",
    "state": "TAS",
    "postcode": "7270",
    "sector": "Government",
    "type": "Primary",
    "latitude": -41.20319085,
    "longitude": 146.8219466
  },
  {
    "name": "Newstead Christian School",
    "suburb": "NEWSTEAD",
    "state": "TAS",
    "postcode": "7250",
    "sector": "Independent",
    "type": "Combined",
    "latitude": -41.438287,
    "longitude": 147.165078
  },
  {
    "name": "St Virgil's College",
    "suburb": "AUSTINS FERRY",
    "state": "TAS",
    "postcode": "7011",
    "sector": "Catholic",
    "type": "Combined",
    "latitude": -42.774178,
    "longitude": 147.251698
  },
  {
    "name": "Peregrine",
    "suburb": "NICHOLLS RIVULET",
    "state": "TAS",
    "postcode": "7112",
    "sector": "Independent",
    "type": "Primary",
    "latitude": -43.141636,
    "longitude": 147.152841
  },
  {
    "name": "Mountain Heights School",
    "suburb": "QUEENSTOWN",
    "state": "TAS",
    "postcode": "7467",
    "sector": "Government",
    "type": "Combined",
    "latitude": -42.09410938,
    "longitude": 145.54957398
  },
  {
    "name": "St Brendan-Shaw College",
    "suburb": "DEVONPORT",
    "state": "TAS",
    "postcode": "7310",
    "sector": "Catholic",
    "type": "Secondary",
    "latitude": -41.167167,
    "longitude": 146.342373
  },
  {
    "name": "St Patrick's College",
    "suburb": "PROSPECT VALE",
    "state": "TAS",
    "postcode": "7250",
    "sector": "Catholic",
    "type": "Secondary",
    "latitude": -41.473557,
    "longitude": 147.127444
  },
  {
    "name": "Marist Regional College",
    "suburb": "BURNIE",
    "state": "TAS",
    "postcode": "7320",
    "sector": "Catholic",
    "type": "Secondary",
    "latitude": -41.04803,
    "longitude": 145.886284
  },
  {
    "name": "Ashley School",
    "suburb": "DELORAINE",
    "state": "TAS",
    "postcode": "7304",
    "sector": "Government",
    "type": "Secondary",
    "latitude": -41.52487563,
    "longitude": 146.70431781
  },
  {
    "name": "Cape Barren Island School",
    "suburb": "CAPE BARREN ISLAND",
    "state": "TAS",
    "postcode": "7257",
    "sector": "Government",
    "type": "Combined",
    "latitude": -40.369305,
    "longitude": 148.024571
  },
  {
    "name": "Southern Support School",
    "suburb": "HOWRAH",
    "state": "TAS",
    "postcode": "7018",
    "sector": "Government",
    "type": "Combined",
    "latitude": -42.880164,
    "longitude": 147.401683
  },
  {
    "name": "Calvin Christian School",
    "suburb": "KINGSTON",
    "state": "TAS",
    "postcode": "7050",
    "sector": "Independent",
    "type": "Primary",
    "latitude": -42.97993089,
    "longitude": 147.30502043
  },
  {
    "name": "Sunrise Christian School Fullarton",
    "suburb": "FULLARTON",
    "state": "SA",
    "postcode": "5063",
    "sector": "Independent",
    "type": "Primary",
    "latitude": -34.954499,
    "longitude": 138.621828
  },
  {
    "name": "Northern Support School",
    "suburb": "RAVENSWOOD",
    "state": "TAS",
    "postcode": "7250",
    "sector": "Government",
    "type": "Combined",
    "latitude": -41.423615,
    "longitude": 147.172268
  },
  {
    "name": "Ngaanyatjarra Lands School",
    "suburb": "NGAANYATJARRA-GILES",
    "state": "WA",
    "postcode": "0872",
    "sector": "Government",
    "type": "Combined",
    "latitude": -25.28353,
    "longitude": 127.54272
  },
  {
    "name": "Launceston Church Grammar School - Junior Campus",
    "suburb": "EAST LAUNCESTON",
    "state": "TAS",
    "postcode": "7250",
    "sector": "Independent",
    "type": "Primary",
    "latitude": -41.433996,
    "longitude": 147.149315
  },
  {
    "name": "Scotch Oakburn College - Elphin Campus",
    "suburb": "LAUNCESTON",
    "state": "TAS",
    "postcode": "7250",
    "sector": "Independent",
    "type": "Primary",
    "latitude": -41.434589,
    "longitude": 147.152685
  },
  {
    "name": "Leighland Christian School - Burnie Campus",
    "suburb": "WIVENHOE",
    "state": "TAS",
    "postcode": "7320",
    "sector": "Independent",
    "type": "Primary",
    "latitude": -41.069016,
    "longitude": 145.935864
  },
  {
    "name": "St Virgil's College - St Virgil's Junior School",
    "suburb": "HOBART",
    "state": "TAS",
    "postcode": "7000",
    "sector": "Catholic",
    "type": "Primary",
    "latitude": -42.882906,
    "longitude": 147.317603
  },
  {
    "name": "OneSchool Global - Launceston Campus",
    "suburb": "KINGS MEADOWS",
    "state": "TAS",
    "postcode": "7249",
    "sector": "Independent",
    "type": "Combined",
    "latitude": -41.451375,
    "longitude": 147.160437
  },
  {
    "name": "Australian Christian College - Launceston",
    "suburb": "NEWNHAM",
    "state": "TAS",
    "postcode": "7248",
    "sector": "Independent",
    "type": "Combined",
    "latitude": -41.3858,
    "longitude": 147.127401
  },
  {
    "name": "Emmanuel Christian School",
    "suburb": "ROKEBY",
    "state": "TAS",
    "postcode": "7019",
    "sector": "Independent",
    "type": "Combined",
    "latitude": -42.90075556,
    "longitude": 147.43857962
  },
  {
    "name": "Northern Christian School",
    "suburb": "BRIDGEWATER",
    "state": "TAS",
    "postcode": "7030",
    "sector": "Independent",
    "type": "Primary",
    "latitude": -42.730637,
    "longitude": 147.223489
  },
  {
    "name": "Channel Christian School",
    "suburb": "MARGATE",
    "state": "TAS",
    "postcode": "7054",
    "sector": "Independent",
    "type": "Primary",
    "latitude": -43.027034,
    "longitude": 147.271393
  },
  {
    "name": "Australian Christian College - Hobart",
    "suburb": "GEILSTON BAY",
    "state": "TAS",
    "postcode": "7015",
    "sector": "Independent",
    "type": "Combined",
    "latitude": -42.839719,
    "longitude": 147.352713
  },
  {
    "name": "Saint Mary MacKillop College Albury",
    "suburb": "JINDERA",
    "state": "NSW",
    "postcode": "2642",
    "sector": "Independent",
    "type": "Combined",
    "latitude": -35.902879,
    "longitude": 146.826712
  },
  {
    "name": "St Dominic Savio School",
    "suburb": "ROCKDALE",
    "state": "NSW",
    "postcode": "2216",
    "sector": "Independent",
    "type": "Primary",
    "latitude": -33.950985,
    "longitude": 151.149577
  },
  {
    "name": "Saint Mary MacKillop Colleges Limited",
    "suburb": "WAGGA WAGGA",
    "state": "NSW",
    "postcode": "2650",
    "sector": "Independent",
    "type": "Combined",
    "latitude": -35.12896698,
    "longitude": 147.34798137
  },
  {
    "name": "Kurnai College - University Campus",
    "suburb": "CHURCHILL",
    "state": "VIC",
    "postcode": "3842",
    "sector": "Government",
    "type": "Secondary",
    "latitude": -38.30939,
    "longitude": 146.424883
  },
  {
    "name": "St Philomena School",
    "suburb": "PARK RIDGE",
    "state": "QLD",
    "postcode": "4125",
    "sector": "Independent",
    "type": "Combined",
    "latitude": -27.718998,
    "longitude": 153.08414
  },
  {
    "name": "Darkan Primary School",
    "suburb": "DARKAN",
    "state": "WA",
    "postcode": "6392",
    "sector": "Government",
    "type": "Primary",
    "latitude": -33.33590866,
    "longitude": 116.7331568
  },
  {
    "name": "School Of Special Educational Needs: Medical And Mental Health",
    "suburb": "NEDLANDS",
    "state": "WA",
    "postcode": "6909",
    "sector": "Government",
    "type": "Combined",
    "latitude": -31.969335,
    "longitude": 115.817205
  },
  {
    "name": "Sir David Brand School",
    "suburb": "COOLBINIA",
    "state": "WA",
    "postcode": "6050",
    "sector": "Government",
    "type": "Combined",
    "latitude": -31.91237449645996,
    "longitude": 115.85969543457031
  },
  {
    "name": "Divine Mercy College",
    "suburb": "YANGEBUP",
    "state": "WA",
    "postcode": "6164",
    "sector": "Independent",
    "type": "Combined",
    "latitude": -32.123981,
    "longitude": 115.82463
  },
  {
    "name": "Rehoboth Christian College - Wilson Campus",
    "suburb": "WILSON",
    "state": "WA",
    "postcode": "6107",
    "sector": "Independent",
    "type": "Primary",
    "latitude": -32.01355,
    "longitude": 115.9141
  },
  {
    "name": "Swan Christian College - Junior School Campus",
    "suburb": "MIDDLE SWAN",
    "state": "WA",
    "postcode": "6056",
    "sector": "Independent",
    "type": "Primary",
    "latitude": -31.858097,
    "longitude": 116.012437
  },
  {
    "name": "Port Neill Primary School",
    "suburb": "PORT NEILL",
    "state": "SA",
    "postcode": "5604",
    "sector": "Government",
    "type": "Primary",
    "latitude": -34.11700739,
    "longitude": 136.34277034
  },
  {
    "name": "Thebarton Senior College",
    "suburb": "TORRENSVILLE",
    "state": "SA",
    "postcode": "5031",
    "sector": "Government",
    "type": "Secondary",
    "latitude": -34.917275,
    "longitude": 138.562772
  },
  {
    "name": "Kangaroo Island Community Education - Penneshaw Campus",
    "suburb": "PENNESHAW",
    "state": "SA",
    "postcode": "5222",
    "sector": "Government",
    "type": "Combined",
    "latitude": -35.720872,
    "longitude": 137.931836
  },
  {
    "name": "OneSchool Global SA - Mount Gambier Campus",
    "suburb": "MOUNT GAMBIER",
    "state": "SA",
    "postcode": "5290",
    "sector": "Independent",
    "type": "Combined",
    "latitude": -37.816856,
    "longitude": 140.796901
  },
  {
    "name": "Sunrise Christian School Marion",
    "suburb": "MARION",
    "state": "SA",
    "postcode": "5043",
    "sector": "Independent",
    "type": "Combined",
    "latitude": -35.016798,
    "longitude": 138.557341
  },
  {
    "name": "O'Connor Cooperative School",
    "suburb": "O'CONNOR",
    "state": "ACT",
    "postcode": "2602",
    "sector": "Government",
    "type": "Primary",
    "latitude": -35.261153,
    "longitude": 149.120241
  },
  {
    "name": "Erindale College",
    "suburb": "WANNIASSA",
    "state": "ACT",
    "postcode": "2903",
    "sector": "Government",
    "type": "Secondary",
    "latitude": -35.403049,
    "longitude": 149.096551
  },
  {
    "name": "Hawker College",
    "suburb": "HAWKER",
    "state": "ACT",
    "postcode": "2614",
    "sector": "Government",
    "type": "Secondary",
    "latitude": -35.245578,
    "longitude": 149.032519
  },
  {
    "name": "Narrabundah College",
    "suburb": "NARRABUNDAH",
    "state": "ACT",
    "postcode": "2604",
    "sector": "Government",
    "type": "Secondary",
    "latitude": -35.335969,
    "longitude": 149.147097
  },
  {
    "name": "Southern Cross Early Childhood School",
    "suburb": "SCULLIN",
    "state": "ACT",
    "postcode": "2614",
    "sector": "Government",
    "type": "Primary",
    "latitude": -35.2328,
    "longitude": 149.0384
  },
  {
    "name": "Lyons Early Childhood School",
    "suburb": "LYONS",
    "state": "ACT",
    "postcode": "2606",
    "sector": "Government",
    "type": "Primary",
    "latitude": -35.341633,
    "longitude": 149.076243
  },
  {
    "name": "Narrabundah Early Childhood School",
    "suburb": "NARRABUNDAH",
    "state": "ACT",
    "postcode": "2604",
    "sector": "Government",
    "type": "Primary",
    "latitude": -35.329016,
    "longitude": 149.150698
  },
  {
    "name": "Caroline Chisholm School",
    "suburb": "CHISHOLM",
    "state": "ACT",
    "postcode": "2905",
    "sector": "Government",
    "type": "Secondary",
    "latitude": -35.4182,
    "longitude": 149.122
  },
  {
    "name": "Isabella Plains Early Childhood School",
    "suburb": "ISABELLA PLAINS",
    "state": "ACT",
    "postcode": "2905",
    "sector": "Government",
    "type": "Primary",
    "latitude": -35.428716,
    "longitude": 149.089497
  },
  {
    "name": "The Canberra College",
    "suburb": "PHILLIP",
    "state": "ACT",
    "postcode": "2606",
    "sector": "Government",
    "type": "Secondary",
    "latitude": -35.3404,
    "longitude": 149.0883
  },
  {
    "name": "St Mary MacKillop College - Wanniassa Campus",
    "suburb": "WANNIASSA",
    "state": "ACT",
    "postcode": "2905",
    "sector": "Catholic",
    "type": "Secondary",
    "latitude": -35.4053,
    "longitude": 149.091
  },
  {
    "name": "Daramalan College",
    "suburb": "DICKSON",
    "state": "ACT",
    "postcode": "2602",
    "sector": "Independent",
    "type": "Secondary",
    "latitude": -35.2535,
    "longitude": 149.1387
  },
  {
    "name": "Marist College Canberra",
    "suburb": "PEARCE",
    "state": "ACT",
    "postcode": "2607",
    "sector": "Independent",
    "type": "Combined",
    "latitude": -35.3603,
    "longitude": 149.088
  },
  {
    "name": "St Edmund's College Canberra",
    "suburb": "GRIFFITH",
    "state": "ACT",
    "postcode": "2603",
    "sector": "Independent",
    "type": "Combined",
    "latitude": -35.323315,
    "longitude": 149.144412
  },
  {
    "name": "Darwin High School",
    "suburb": "THE GARDENS",
    "state": "NT",
    "postcode": "0820",
    "sector": "Government",
    "type": "Secondary",
    "latitude": -12.43893,
    "longitude": 130.83398
  },
  {
    "name": "Northern Territory School of Distance Education",
    "suburb": "THE GARDENS",
    "state": "NT",
    "postcode": "0820",
    "sector": "Government",
    "type": "Secondary",
    "latitude": -12.4396483748962,
    "longitude": 130.833994695587
  },
  {
    "name": "Centralian Senior College",
    "suburb": "ALICE SPRINGS",
    "state": "NT",
    "postcode": "0870",
    "sector": "Government",
    "type": "Secondary",
    "latitude": -23.6979,
    "longitude": 133.8953
  },
  {
    "name": "Kiana School",
    "suburb": "ROBINSON RIVER",
    "state": "NT",
    "postcode": "0852",
    "sector": "Government",
    "type": "Combined",
    "latitude": -17.24244,
    "longitude": 136.18325
  },
  {
    "name": "Woolaning School",
    "suburb": "LITCHFIELD PARK",
    "state": "NT",
    "postcode": "0822",
    "sector": "Government",
    "type": "Combined",
    "latitude": -13.098819,
    "longitude": 130.654431
  },
  {
    "name": "Araluen Christian College",
    "suburb": "ALICE SPRINGS",
    "state": "NT",
    "postcode": "0870",
    "sector": "Independent",
    "type": "Combined",
    "latitude": -23.70771,
    "longitude": 133.85232
  },
  {
    "name": "Holy Family Catholic Primary School",
    "suburb": "KARAMA",
    "state": "NT",
    "postcode": "0812",
    "sector": "Catholic",
    "type": "Primary",
    "latitude": -12.39367,
    "longitude": 130.91166
  },
  {
    "name": "Holy Spirit Catholic Primary School",
    "suburb": "WANGURI",
    "state": "NT",
    "postcode": "0810",
    "sector": "Catholic",
    "type": "Primary",
    "latitude": -12.373488,
    "longitude": 130.88543
  },
  {
    "name": "O'Loughlin Catholic College",
    "suburb": "KARAMA",
    "state": "NT",
    "postcode": "0812",
    "sector": "Catholic",
    "type": "Secondary",
    "latitude": -12.39337,
    "longitude": 130.91045
  },
  {
    "name": "Our Lady of the Sacred Heart Catholic College",
    "suburb": "ALICE SPRINGS",
    "state": "NT",
    "postcode": "0870",
    "sector": "Catholic",
    "type": "Combined",
    "latitude": -23.707543,
    "longitude": 133.876955
  },
  {
    "name": "Sacred Heart Catholic Primary School",
    "suburb": "WOODROFFE",
    "state": "NT",
    "postcode": "0830",
    "sector": "Catholic",
    "type": "Primary",
    "latitude": -12.49588,
    "longitude": 130.97937
  },
  {
    "name": "St Francis of Assisi Catholic Primary School",
    "suburb": "HUMPTY DOO",
    "state": "NT",
    "postcode": "0836",
    "sector": "Catholic",
    "type": "Primary",
    "latitude": -12.581199,
    "longitude": 131.099073
  },
  {
    "name": "St John's Catholic College",
    "suburb": "THE GARDENS",
    "state": "NT",
    "postcode": "0820",
    "sector": "Catholic",
    "type": "Secondary",
    "latitude": -12.440794,
    "longitude": 130.837954
  },
  {
    "name": "St Joseph's Catholic College",
    "suburb": "KATHERINE",
    "state": "NT",
    "postcode": "0850",
    "sector": "Catholic",
    "type": "Combined",
    "latitude": -14.46194,
    "longitude": 132.27593
  },
  {
    "name": "St Mary's Catholic Primary School",
    "suburb": "DARWIN",
    "state": "NT",
    "postcode": "0800",
    "sector": "Catholic",
    "type": "Primary",
    "latitude": -12.45935,
    "longitude": 130.83883
  },
  {
    "name": "St Paul's Catholic Primary School",
    "suburb": "RAPID CREEK",
    "state": "NT",
    "postcode": "0810",
    "sector": "Catholic",
    "type": "Primary",
    "latitude": -12.38695,
    "longitude": 130.85821
  },
  {
    "name": "Canberra Grammar School - Northside Infants Campus",
    "suburb": "CAMPBELL",
    "state": "ACT",
    "postcode": "2612",
    "sector": "Independent",
    "type": "Primary",
    "latitude": -35.2853,
    "longitude": 149.1471
  },
  {
    "name": "Muirden Senior College",
    "suburb": "ADELAIDE",
    "state": "SA",
    "postcode": "5000",
    "sector": "Independent",
    "type": "Secondary",
    "latitude": -34.933349,
    "longitude": 138.600554
  },
  {
    "name": "Sacred Heart College - Marcellin Campus",
    "suburb": "SOMERTON PARK",
    "state": "SA",
    "postcode": "5044",
    "sector": "Catholic",
    "type": "Combined",
    "latitude": -34.996682,
    "longitude": 138.521367
  },
  {
    "name": "Kinma School",
    "suburb": "TERREY HILLS",
    "state": "NSW",
    "postcode": "2084",
    "sector": "Independent",
    "type": "Primary",
    "latitude": -33.686607,
    "longitude": 151.216969
  },
  {
    "name": "Knox Grammar School",
    "suburb": "WAHROONGA",
    "state": "NSW",
    "postcode": "2076",
    "sector": "Independent",
    "type": "Combined",
    "latitude": -33.723114,
    "longitude": 151.119418
  },
  {
    "name": "Moriah College",
    "suburb": "BONDI JUNCTION",
    "state": "NSW",
    "postcode": "2022",
    "sector": "Independent",
    "type": "Combined",
    "latitude": -33.899355,
    "longitude": 151.244827
  },
  {
    "name": "St Francis Xavier's College",
    "suburb": "HAMILTON",
    "state": "NSW",
    "postcode": "2303",
    "sector": "Catholic",
    "type": "Secondary",
    "latitude": -32.927166,
    "longitude": 151.753714
  },
  {
    "name": "Holy Spirit Infants School",
    "suburb": "ABERMAIN",
    "state": "NSW",
    "postcode": "2326",
    "sector": "Catholic",
    "type": "Primary",
    "latitude": -32.81091,
    "longitude": 151.443237
  },
  {
    "name": "St Joseph's Catholic Primary School Como - Oyster Bay",
    "suburb": "COMO",
    "state": "NSW",
    "postcode": "2226",
    "sector": "Catholic",
    "type": "Primary",
    "latitude": -34.00927,
    "longitude": 151.073429
  },
  {
    "name": "St Therese's Community Parish School",
    "suburb": "WILCANNIA",
    "state": "NSW",
    "postcode": "2836",
    "sector": "Catholic",
    "type": "Primary",
    "latitude": -31.559128,
    "longitude": 143.379376
  },
  {
    "name": "Highfields Preparatory and Kindergarten School",
    "suburb": "LINDFIELD",
    "state": "NSW",
    "postcode": "2070",
    "sector": "Independent",
    "type": "Primary",
    "latitude": -33.774982,
    "longitude": 151.163657
  },
  {
    "name": "Odyssey College",
    "suburb": "EAGLE VALE",
    "state": "NSW",
    "postcode": "2558",
    "sector": "Independent",
    "type": "Secondary",
    "latitude": -34.034379,
    "longitude": 150.813818
  },
  {
    "name": "Coffs Harbour Christian Community School",
    "suburb": "BONVILLE",
    "state": "NSW",
    "postcode": "2450",
    "sector": "Independent",
    "type": "Combined",
    "latitude": -30.378228,
    "longitude": 153.057112
  },
  {
    "name": "Learning Co-Operative School",
    "suburb": "HURSTBRIDGE",
    "state": "VIC",
    "postcode": "3099",
    "sector": "Independent",
    "type": "Primary",
    "latitude": -37.62939233,
    "longitude": 145.2133347
  },
  {
    "name": "Mt Maria College",
    "suburb": "MITCHELTON",
    "state": "QLD",
    "postcode": "4053",
    "sector": "Catholic",
    "type": "Secondary",
    "latitude": -27.412361,
    "longitude": 152.979765
  },
  {
    "name": "Andale School",
    "suburb": "KEW EAST",
    "state": "VIC",
    "postcode": "3101",
    "sector": "Independent",
    "type": "Combined",
    "latitude": -37.805513,
    "longitude": 145.036044
  },
  {
    "name": "The Currajong School",
    "suburb": "MALVERN EAST",
    "state": "VIC",
    "postcode": "3145",
    "sector": "Independent",
    "type": "Combined",
    "latitude": -37.875953,
    "longitude": 145.059946
  },
  {
    "name": "Mansfield Autism Statewide Services",
    "suburb": "MANSFIELD",
    "state": "VIC",
    "postcode": "3722",
    "sector": "Independent",
    "type": "Combined",
    "latitude": -37.060799,
    "longitude": 146.085858
  },
  {
    "name": "Rossbourne School",
    "suburb": "HAWTHORN",
    "state": "VIC",
    "postcode": "3122",
    "sector": "Independent",
    "type": "Secondary",
    "latitude": -37.82304,
    "longitude": 145.02655
  },
  {
    "name": "St Paul's College",
    "suburb": "BALWYN",
    "state": "VIC",
    "postcode": "3101",
    "sector": "Independent",
    "type": "Combined",
    "latitude": -37.812213,
    "longitude": 145.086665
  },
  {
    "name": "Autism Queensland Education & Therapy Centre",
    "suburb": "SUNNYBANK HILLS",
    "state": "QLD",
    "postcode": "4109",
    "sector": "Independent",
    "type": "Combined",
    "latitude": -27.597672,
    "longitude": 153.043054
  },
  {
    "name": "Catholic Regional College Sydenham",
    "suburb": "SYDENHAM",
    "state": "VIC",
    "postcode": "3037",
    "sector": "Catholic",
    "type": "Secondary",
    "latitude": -37.699136,
    "longitude": 144.771012
  },
  {
    "name": "Tangara School for Girls",
    "suburb": "CHERRYBROOK",
    "state": "NSW",
    "postcode": "2126",
    "sector": "Independent",
    "type": "Combined",
    "latitude": -33.73636759687457,
    "longitude": 151.036080508867
  },
  {
    "name": "Heritage Christian School",
    "suburb": "PORT MACQUARIE",
    "state": "NSW",
    "postcode": "2444",
    "sector": "Independent",
    "type": "Combined",
    "latitude": -31.429904,
    "longitude": 152.880468
  },
  {
    "name": "St Spyridon College, Junior School Campus",
    "suburb": "KINGSFORD",
    "state": "NSW",
    "postcode": "2032",
    "sector": "Independent",
    "type": "Primary",
    "latitude": -33.925448,
    "longitude": 151.224481
  },
  {
    "name": "Catherine McAuley College",
    "suburb": "BENDIGO",
    "state": "VIC",
    "postcode": "3550",
    "sector": "Catholic",
    "type": "Secondary",
    "latitude": -36.753444,
    "longitude": 144.273362
  },
  {
    "name": "Northern Adelaide Senior College",
    "suburb": "ELIZABETH",
    "state": "SA",
    "postcode": "5112",
    "sector": "Government",
    "type": "Secondary",
    "latitude": -34.71345547,
    "longitude": 138.67101822
  },
  {
    "name": "Marden Senior College",
    "suburb": "MARDEN",
    "state": "SA",
    "postcode": "5070",
    "sector": "Government",
    "type": "Secondary",
    "latitude": -34.891954,
    "longitude": 138.63523
  },
  {
    "name": "Edward John Eyre High School",
    "suburb": "WHYALLA NORRIE",
    "state": "SA",
    "postcode": "5608",
    "sector": "Government",
    "type": "Secondary",
    "latitude": -33.026208,
    "longitude": 137.540961
  },
  {
    "name": "Central Yorke School - Point Pearce Campus",
    "suburb": "POINT PEARCE",
    "state": "SA",
    "postcode": "5573",
    "sector": "Government",
    "type": "Combined",
    "latitude": -34.427855,
    "longitude": 137.504945
  },
  {
    "name": "Williamstown High School",
    "suburb": "WILLIAMSTOWN",
    "state": "VIC",
    "postcode": "3016",
    "sector": "Government",
    "type": "Secondary",
    "latitude": -37.862753,
    "longitude": 144.895131
  },
  {
    "name": "Wodonga Senior Secondary College",
    "suburb": "WODONGA",
    "state": "VIC",
    "postcode": "3690",
    "sector": "Government",
    "type": "Secondary",
    "latitude": -36.12745035,
    "longitude": 146.88022763
  },
  {
    "name": "Swinburne Senior Secondary College",
    "suburb": "HAWTHORN",
    "state": "VIC",
    "postcode": "3122",
    "sector": "Government",
    "type": "Secondary",
    "latitude": -37.823135,
    "longitude": 145.040821
  },
  {
    "name": "Essendon Keilor College-Senior Campus",
    "suburb": "ESSENDON",
    "state": "VIC",
    "postcode": "3040",
    "sector": "Government",
    "type": "Secondary",
    "latitude": -37.755219,
    "longitude": 144.901945
  },
  {
    "name": "Echuca College",
    "suburb": "ECHUCA",
    "state": "VIC",
    "postcode": "3564",
    "sector": "Government",
    "type": "Secondary",
    "latitude": -36.132394,
    "longitude": 144.732423
  },
  {
    "name": "Chifley College Senior Campus",
    "suburb": "MOUNT DRUITT",
    "state": "NSW",
    "postcode": "2770",
    "sector": "Government",
    "type": "Secondary",
    "latitude": -33.769305,
    "longitude": 150.829855
  },
  {
    "name": "Moree Secondary College",
    "suburb": "MOREE",
    "state": "NSW",
    "postcode": "2400",
    "sector": "Government",
    "type": "Secondary",
    "latitude": -29.48198938,
    "longitude": 149.83985442
  },
  {
    "name": "St Marys Senior High School",
    "suburb": "ST MARYS",
    "state": "NSW",
    "postcode": "2760",
    "sector": "Government",
    "type": "Secondary",
    "latitude": -33.763119,
    "longitude": 150.770024
  },
  {
    "name": "Brisbane Water Secondary College Woy Woy Campus",
    "suburb": "WOY WOY",
    "state": "NSW",
    "postcode": "2256",
    "sector": "Government",
    "type": "Secondary",
    "latitude": -33.492687,
    "longitude": 151.323582
  },
  {
    "name": "Sydney Secondary College Blackwattle Bay Campus",
    "suburb": "GLEBE",
    "state": "NSW",
    "postcode": "2037",
    "sector": "Government",
    "type": "Secondary",
    "latitude": -33.875142,
    "longitude": 151.188357
  },
  {
    "name": "Launceston College",
    "suburb": "LAUNCESTON",
    "state": "TAS",
    "postcode": "7250",
    "sector": "Government",
    "type": "Secondary",
    "latitude": -41.43992227,
    "longitude": 147.13289463
  },
  {
    "name": "Elizabeth College",
    "suburb": "NORTH HOBART",
    "state": "TAS",
    "postcode": "7000",
    "sector": "Government",
    "type": "Secondary",
    "latitude": -42.87760164,
    "longitude": 147.31775523
  },
  {
    "name": "Rosny College",
    "suburb": "ROSNY PARK",
    "state": "TAS",
    "postcode": "7018",
    "sector": "Government",
    "type": "Secondary",
    "latitude": -42.86932994,
    "longitude": 147.36533631
  },
  {
    "name": "Sevenoaks Senior College",
    "suburb": "CANNINGTON",
    "state": "WA",
    "postcode": "6107",
    "sector": "Government",
    "type": "Secondary",
    "latitude": -32.01209,
    "longitude": 115.94261
  },
  {
    "name": "North Lake Senior Campus",
    "suburb": "KARDINYA",
    "state": "WA",
    "postcode": "6163",
    "sector": "Government",
    "type": "Secondary",
    "latitude": -32.07413,
    "longitude": 115.81394
  },
  {
    "name": "Cyril Jackson Senior Campus",
    "suburb": "BASSENDEAN",
    "state": "WA",
    "postcode": "6054",
    "sector": "Government",
    "type": "Secondary",
    "latitude": -31.91352,
    "longitude": 115.9427
  },
  {
    "name": "Canning College",
    "suburb": "BENTLEY",
    "state": "WA",
    "postcode": "6102",
    "sector": "Government",
    "type": "Secondary",
    "latitude": -32.01042787,
    "longitude": 115.8970779
  },
  {
    "name": "Tallowood Steiner School",
    "suburb": "BOWRAVILLE",
    "state": "NSW",
    "postcode": "2449",
    "sector": "Independent",
    "type": "Primary",
    "latitude": -30.623479,
    "longitude": 152.849846
  },
  {
    "name": "Port Lincoln Junior Primary School",
    "suburb": "PORT LINCOLN",
    "state": "SA",
    "postcode": "5606",
    "sector": "Government",
    "type": "Primary",
    "latitude": -34.724303,
    "longitude": 135.857806
  },
  {
    "name": "Australia Street Infants School",
    "suburb": "NEWTOWN",
    "state": "NSW",
    "postcode": "2042",
    "sector": "Government",
    "type": "Primary",
    "latitude": -33.895783,
    "longitude": 151.177607
  },
  {
    "name": "Russell Lea Public School",
    "suburb": "RUSSELL LEA",
    "state": "NSW",
    "postcode": "2046",
    "sector": "Government",
    "type": "Primary",
    "latitude": -33.861418,
    "longitude": 151.142572
  },
  {
    "name": "Taverners Hill Infants School",
    "suburb": "PETERSHAM",
    "state": "NSW",
    "postcode": "2049",
    "sector": "Government",
    "type": "Primary",
    "latitude": -33.888955,
    "longitude": 151.157199
  },
  {
    "name": "Northern Beaches Secondary College Freshwater Senior Campus",
    "suburb": "FRESHWATER",
    "state": "NSW",
    "postcode": "2096",
    "sector": "Government",
    "type": "Secondary",
    "latitude": -33.768258,
    "longitude": 151.279779
  },
  {
    "name": "Yeo Park Infants School",
    "suburb": "ASHFIELD",
    "state": "NSW",
    "postcode": "2131",
    "sector": "Government",
    "type": "Primary",
    "latitude": -33.90251807469795,
    "longitude": 151.12969021957397
  },
  {
    "name": "Casuarina Senior College",
    "suburb": "MOIL",
    "state": "NT",
    "postcode": "0810",
    "sector": "Government",
    "type": "Secondary",
    "latitude": -12.3836,
    "longitude": 130.879
  },
  {
    "name": "Fowler Road School",
    "suburb": "MERRYLANDS",
    "state": "NSW",
    "postcode": "2160",
    "sector": "Government",
    "type": "Combined",
    "latitude": -33.841497,
    "longitude": 150.975533
  },
  {
    "name": "Sefton Infants School",
    "suburb": "SEFTON",
    "state": "NSW",
    "postcode": "2162",
    "sector": "Government",
    "type": "Primary",
    "latitude": -33.889237,
    "longitude": 151.009588
  },
  {
    "name": "Blackburn English Language School",
    "suburb": "BURWOOD EAST",
    "state": "VIC",
    "postcode": "3151",
    "sector": "Government",
    "type": "Combined",
    "latitude": -37.847889,
    "longitude": 145.148292
  },
  {
    "name": "Mount Lewis Infants School",
    "suburb": "GREENACRE",
    "state": "NSW",
    "postcode": "2190",
    "sector": "Government",
    "type": "Primary",
    "latitude": -33.916084,
    "longitude": 151.04976
  },
  {
    "name": "Bankstown South Infants School",
    "suburb": "BANKSTOWN",
    "state": "NSW",
    "postcode": "2200",
    "sector": "Government",
    "type": "Primary",
    "latitude": -33.93123,
    "longitude": 151.038402
  },
  {
    "name": "Arncliffe West Infants School",
    "suburb": "ARNCLIFFE",
    "state": "NSW",
    "postcode": "2205",
    "sector": "Government",
    "type": "Primary",
    "latitude": -33.931832,
    "longitude": 151.14516
  },
  {
    "name": "Bardwell Park Infants School",
    "suburb": "BARDWELL PARK",
    "state": "NSW",
    "postcode": "2207",
    "sector": "Government",
    "type": "Primary",
    "latitude": -33.9334992125543,
    "longitude": 151.125378338623
  },
  {
    "name": "Hurstville Grove Infants School",
    "suburb": "PENSHURST",
    "state": "NSW",
    "postcode": "2222",
    "sector": "Government",
    "type": "Primary",
    "latitude": -33.973128,
    "longitude": 151.090536
  },
  {
    "name": "Kotara School",
    "suburb": "KOTARA",
    "state": "NSW",
    "postcode": "2289",
    "sector": "Government",
    "type": "Combined",
    "latitude": -32.94283,
    "longitude": 151.700379
  },
  {
    "name": "Callaghan College Jesmond Senior Campus",
    "suburb": "JESMOND",
    "state": "NSW",
    "postcode": "2299",
    "sector": "Government",
    "type": "Secondary",
    "latitude": -32.90150524,
    "longitude": 151.6962969
  },
  {
    "name": "New Lambton Heights Infants School",
    "suburb": "NEW LAMBTON HEIGHTS",
    "state": "NSW",
    "postcode": "2305",
    "sector": "Government",
    "type": "Primary",
    "latitude": -32.934855,
    "longitude": 151.688027
  },
  {
    "name": "Nillo Infants School",
    "suburb": "LORN",
    "state": "NSW",
    "postcode": "2320",
    "sector": "Government",
    "type": "Primary",
    "latitude": -32.727541,
    "longitude": 151.559611
  },
  {
    "name": "Stanford Merthyr Infants School",
    "suburb": "STANFORD MERTHYR",
    "state": "NSW",
    "postcode": "2327",
    "sector": "Government",
    "type": "Primary",
    "latitude": -32.823423,
    "longitude": 151.495438
  },
  {
    "name": "Glen Innes West Infants School",
    "suburb": "GLEN INNES",
    "state": "NSW",
    "postcode": "2370",
    "sector": "Government",
    "type": "Primary",
    "latitude": -29.738734,
    "longitude": 151.723882
  },
  {
    "name": "Penshurst Primary School",
    "suburb": "PENSHURST",
    "state": "VIC",
    "postcode": "3289",
    "sector": "Government",
    "type": "Primary",
    "latitude": -37.87947471,
    "longitude": 142.29096858
  },
  {
    "name": "Narrandera East Infants School",
    "suburb": "NARRANDERA",
    "state": "NSW",
    "postcode": "2700",
    "sector": "Government",
    "type": "Primary",
    "latitude": -34.75016784667969,
    "longitude": 146.56468200683594
  },
  {
    "name": "Jugiong Public School",
    "suburb": "JUGIONG",
    "state": "NSW",
    "postcode": "2726",
    "sector": "Government",
    "type": "Primary",
    "latitude": -34.820203,
    "longitude": 148.335447
  },
  {
    "name": "Mildura Senior College",
    "suburb": "MILDURA",
    "state": "VIC",
    "postcode": "3502",
    "sector": "Government",
    "type": "Secondary",
    "latitude": -34.19800387,
    "longitude": 142.14539009
  },
  {
    "name": "Sofala Public School",
    "suburb": "SOFALA",
    "state": "NSW",
    "postcode": "2795",
    "sector": "Government",
    "type": "Primary",
    "latitude": -33.082242,
    "longitude": 149.695172
  },
  {
    "name": "Goolma Public School",
    "suburb": "GOOLMA",
    "state": "NSW",
    "postcode": "2852",
    "sector": "Government",
    "type": "Primary",
    "latitude": -32.3688,
    "longitude": 149.26901
  },
  {
    "name": "Bendigo Senior Secondary College",
    "suburb": "BENDIGO",
    "state": "VIC",
    "postcode": "3552",
    "sector": "Government",
    "type": "Secondary",
    "latitude": -36.7551,
    "longitude": 144.279586
  },
  {
    "name": "Myrtleford P-12 College",
    "suburb": "MYRTLEFORD",
    "state": "VIC",
    "postcode": "3736",
    "sector": "Government",
    "type": "Combined",
    "latitude": -36.54888702,
    "longitude": 146.72614474
  },
  {
    "name": "Traralgon College",
    "suburb": "TRARALGON",
    "state": "VIC",
    "postcode": "3844",
    "sector": "Government",
    "type": "Secondary",
    "latitude": -38.19142459,
    "longitude": 146.51948948
  },
  {
    "name": "Lundavra State School",
    "suburb": "LUNDAVRA",
    "state": "QLD",
    "postcode": "4390",
    "sector": "Government",
    "type": "Primary",
    "latitude": -28.0702,
    "longitude": 149.982
  },
  {
    "name": "Perseverance Primary School",
    "suburb": "FRENCH ISLAND",
    "state": "VIC",
    "postcode": "3921",
    "sector": "Government",
    "type": "Primary",
    "latitude": -38.38337735,
    "longitude": 145.33340517
  },
  {
    "name": "Kioma State School",
    "suburb": "KIOMA",
    "state": "QLD",
    "postcode": "4498",
    "sector": "Government",
    "type": "Primary",
    "latitude": -28.217032,
    "longitude": 149.793707
  },
  {
    "name": "Bass Coast College",
    "suburb": "WONTHAGGI",
    "state": "VIC",
    "postcode": "3995",
    "sector": "Government",
    "type": "Secondary",
    "latitude": -38.609807,
    "longitude": 145.597177
  },
  {
    "name": "Western Australian College Of Agriculture - Narrogin",
    "suburb": "NARROGIN",
    "state": "WA",
    "postcode": "6312",
    "sector": "Government",
    "type": "Secondary",
    "latitude": -32.973475,
    "longitude": 117.117756
  },
  {
    "name": "Western Australian College Of Agriculture - Denmark",
    "suburb": "DENMARK",
    "state": "WA",
    "postcode": "6333",
    "sector": "Government",
    "type": "Secondary",
    "latitude": -34.95405,
    "longitude": 117.37456
  },
  {
    "name": "Western Australian College Of Agriculture - Cunderdin",
    "suburb": "CUNDERDIN",
    "state": "WA",
    "postcode": "6407",
    "sector": "Government",
    "type": "Secondary",
    "latitude": -31.62698,
    "longitude": 117.23179
  },
  {
    "name": "St Lawrence State School",
    "suburb": "ST LAWRENCE",
    "state": "QLD",
    "postcode": "4707",
    "sector": "Government",
    "type": "Primary",
    "latitude": -22.3449,
    "longitude": 149.5297
  },
  {
    "name": "St Paul's International College",
    "suburb": "MOSS VALE",
    "state": "NSW",
    "postcode": "2577",
    "sector": "Independent",
    "type": "Secondary",
    "latitude": -34.549152,
    "longitude": 150.36822
  },
  {
    "name": "Wongutha Christian Aboriginal Parent-Directed School",
    "suburb": "GIBSON",
    "state": "WA",
    "postcode": "6448",
    "sector": "Independent",
    "type": "Secondary",
    "latitude": -33.65843924,
    "longitude": 121.8733677
  },
  {
    "name": "St Monica's College",
    "suburb": "EPPING",
    "state": "VIC",
    "postcode": "3076",
    "sector": "Catholic",
    "type": "Secondary",
    "latitude": -37.655706,
    "longitude": 145.032058
  },
  {
    "name": "St Aloysius College Cronulla",
    "suburb": "CRONULLA",
    "state": "NSW",
    "postcode": "2230",
    "sector": "Catholic",
    "type": "Secondary",
    "latitude": -34.055592,
    "longitude": 151.143328
  },
  {
    "name": "All Saints College",
    "suburb": "MAITLAND",
    "state": "NSW",
    "postcode": "2320",
    "sector": "Catholic",
    "type": "Secondary",
    "latitude": -32.73784,
    "longitude": 151.559996
  },
  {
    "name": "Sandringham College",
    "suburb": "SANDRINGHAM",
    "state": "VIC",
    "postcode": "3191",
    "sector": "Government",
    "type": "Secondary",
    "latitude": -37.9566838,
    "longitude": 145.02334835
  },
  {
    "name": "St Francis Xavier College",
    "suburb": "BEACONSFIELD",
    "state": "VIC",
    "postcode": "3807",
    "sector": "Catholic",
    "type": "Secondary",
    "latitude": -38.051525,
    "longitude": 145.373328
  },
  {
    "name": "Five Islands Secondary College",
    "suburb": "PORT KEMBLA",
    "state": "NSW",
    "postcode": "2505",
    "sector": "Government",
    "type": "Secondary",
    "latitude": -34.48954578,
    "longitude": 150.91226348
  },
  {
    "name": "Hallam Secondary College",
    "suburb": "HALLAM",
    "state": "VIC",
    "postcode": "3803",
    "sector": "Government",
    "type": "Secondary",
    "latitude": -38.000383,
    "longitude": 145.262797
  },
  {
    "name": "Coffs Harbour Senior College",
    "suburb": "COFFS HARBOUR",
    "state": "NSW",
    "postcode": "2450",
    "sector": "Government",
    "type": "Secondary",
    "latitude": -30.330173,
    "longitude": 153.102656
  },
  {
    "name": "Collingwood English Language School",
    "suburb": "COLLINGWOOD",
    "state": "VIC",
    "postcode": "3066",
    "sector": "Government",
    "type": "Combined",
    "latitude": -37.80784119,
    "longitude": 144.98479952
  },
  {
    "name": "Western Australian College Of Agriculture - Morawa",
    "suburb": "MORAWA",
    "state": "WA",
    "postcode": "6623",
    "sector": "Government",
    "type": "Secondary",
    "latitude": -29.21436066,
    "longitude": 116.001998
  },
  {
    "name": "Guilford Young College",
    "suburb": "GLENORCHY",
    "state": "TAS",
    "postcode": "7010",
    "sector": "Catholic",
    "type": "Secondary",
    "latitude": -42.835,
    "longitude": 147.27
  },
  {
    "name": "Claremont College",
    "suburb": "CLAREMONT",
    "state": "TAS",
    "postcode": "7011",
    "sector": "Government",
    "type": "Secondary",
    "latitude": -42.79584451,
    "longitude": 147.25055132
  },
  {
    "name": "Field of Mars Environmental Education Centre",
    "suburb": "EAST RYDE",
    "state": "NSW",
    "postcode": "2113",
    "sector": "Government",
    "type": "Combined",
    "latitude": -33.816092,
    "longitude": 151.132849
  },
  {
    "name": "North East Metropolitan Language Development Centre",
    "suburb": "DIANELLA",
    "state": "WA",
    "postcode": "6059",
    "sector": "Government",
    "type": "Primary",
    "latitude": -31.8898,
    "longitude": 115.886
  },
  {
    "name": "West Coast Language Development Centre",
    "suburb": "PADBURY",
    "state": "WA",
    "postcode": "6025",
    "sector": "Government",
    "type": "Primary",
    "latitude": -31.80498526,
    "longitude": 115.7605909
  },
  {
    "name": "Bradfield College",
    "suburb": "ST LEONARDS",
    "state": "NSW",
    "postcode": "2065",
    "sector": "Government",
    "type": "Secondary",
    "latitude": -33.820468,
    "longitude": 151.188457
  },
  {
    "name": "Bankstown Senior College",
    "suburb": "BANKSTOWN",
    "state": "NSW",
    "postcode": "2200",
    "sector": "Government",
    "type": "Secondary",
    "latitude": -33.929121,
    "longitude": 151.022569
  },
  {
    "name": "Broadmeadows Valley Primary School Meadowfair North Campus",
    "suburb": "BROADMEADOWS",
    "state": "VIC",
    "postcode": "3047",
    "sector": "Government",
    "type": "Primary",
    "latitude": -37.68110291,
    "longitude": 144.91319666
  },
  {
    "name": "Blacktown Youth College Incorporated",
    "suburb": "HEBERSHAM",
    "state": "NSW",
    "postcode": "2770",
    "sector": "Independent",
    "type": "Secondary",
    "latitude": -33.73750955,
    "longitude": 150.82623899
  },
  {
    "name": "Wyndham College",
    "suburb": "QUAKERS HILL",
    "state": "NSW",
    "postcode": "2763",
    "sector": "Government",
    "type": "Secondary",
    "latitude": -33.726016,
    "longitude": 150.879709
  },
  {
    "name": "Arndell School",
    "suburb": "NORTH RYDE",
    "state": "NSW",
    "postcode": "2113",
    "sector": "Government",
    "type": "Combined",
    "latitude": -33.803223,
    "longitude": 151.125535
  },
  {
    "name": "Bridge Road School",
    "suburb": "CAMPERDOWN",
    "state": "NSW",
    "postcode": "2050",
    "sector": "Government",
    "type": "Primary",
    "latitude": -33.887445,
    "longitude": 151.175254
  },
  {
    "name": "Girrakool School",
    "suburb": "KARIONG",
    "state": "NSW",
    "postcode": "2250",
    "sector": "Government",
    "type": "Secondary",
    "latitude": -33.4237,
    "longitude": 151.296
  },
  {
    "name": "Dorchester School",
    "suburb": "CAMPBELLTOWN",
    "state": "NSW",
    "postcode": "2560",
    "sector": "Government",
    "type": "Secondary",
    "latitude": -34.088474,
    "longitude": 150.826331
  },
  {
    "name": "Kyeemagh Public School",
    "suburb": "ROCKDALE",
    "state": "NSW",
    "postcode": "2216",
    "sector": "Government",
    "type": "Primary",
    "latitude": -33.949096,
    "longitude": 151.16223
  },
  {
    "name": "Putland School",
    "suburb": "WERRINGTON",
    "state": "NSW",
    "postcode": "2747",
    "sector": "Government",
    "type": "Secondary",
    "latitude": -33.764297,
    "longitude": 150.750385
  },
  {
    "name": "Shepherds Park School",
    "suburb": "WAGGA WAGGA",
    "state": "NSW",
    "postcode": "2650",
    "sector": "Government",
    "type": "Secondary",
    "latitude": -35.130108,
    "longitude": 147.344225
  },
  {
    "name": "Noble Park English Language School",
    "suburb": "NOBLE PARK",
    "state": "VIC",
    "postcode": "3174",
    "sector": "Government",
    "type": "Combined",
    "latitude": -37.971168,
    "longitude": 145.178166
  },
  {
    "name": "Youth Education Centre - Goldsborough Road Campus (Cavan)",
    "suburb": "CAVAN",
    "state": "SA",
    "postcode": "5072",
    "sector": "Government",
    "type": "Combined",
    "latitude": -34.828265,
    "longitude": 138.60253
  },
  {
    "name": "Dandenong Ranges Steiner School - School Road Campus",
    "suburb": "NARRE WARREN EAST",
    "state": "VIC",
    "postcode": "3159",
    "sector": "Independent",
    "type": "Primary",
    "latitude": -37.921023,
    "longitude": 145.406706
  },
  {
    "name": "Kintore Street School",
    "suburb": "KATHERINE",
    "state": "NT",
    "postcode": "0850",
    "sector": "Government",
    "type": "Combined",
    "latitude": -14.46361,
    "longitude": 132.25918
  },
  {
    "name": "Calrossy Anglican School",
    "suburb": "TAMWORTH",
    "state": "NSW",
    "postcode": "2340",
    "sector": "Independent",
    "type": "Secondary",
    "latitude": -31.057196,
    "longitude": 150.911651
  },
  {
    "name": "Hinchinbrook Christian School",
    "suburb": "INGHAM",
    "state": "QLD",
    "postcode": "4850",
    "sector": "Independent",
    "type": "Combined",
    "latitude": -18.638533,
    "longitude": 146.167661
  },
  {
    "name": "Great Lakes College Senior Campus",
    "suburb": "TUNCURRY",
    "state": "NSW",
    "postcode": "2428",
    "sector": "Government",
    "type": "Secondary",
    "latitude": -32.16141619,
    "longitude": 152.4953369
  },
  {
    "name": "NT Christian College",
    "suburb": "MARRARA",
    "state": "NT",
    "postcode": "0812",
    "sector": "Independent",
    "type": "Secondary",
    "latitude": -12.40795029,
    "longitude": 130.917266
  },
  {
    "name": "Georges River College Oatley Senior Campus",
    "suburb": "OATLEY",
    "state": "NSW",
    "postcode": "2223",
    "sector": "Government",
    "type": "Secondary",
    "latitude": -33.977001,
    "longitude": 151.081391
  },
  {
    "name": "Australian Science and Mathematics School",
    "suburb": "BEDFORD PARK",
    "state": "SA",
    "postcode": "5042",
    "sector": "Government",
    "type": "Secondary",
    "latitude": -35.024872,
    "longitude": 138.573379
  },
  {
    "name": "St Patrick's College",
    "suburb": "MACKAY",
    "state": "QLD",
    "postcode": "4740",
    "sector": "Catholic",
    "type": "Secondary",
    "latitude": -21.138565,
    "longitude": 149.184476
  },
  {
    "name": "OneSchool Global WA",
    "suburb": "WILLETTON",
    "state": "WA",
    "postcode": "6155",
    "sector": "Independent",
    "type": "Combined",
    "latitude": -32.056546,
    "longitude": 115.901724
  },
  {
    "name": "Kwoorabup Community School",
    "suburb": "DENMARK",
    "state": "WA",
    "postcode": "6333",
    "sector": "Independent",
    "type": "Primary",
    "latitude": -34.97048,
    "longitude": 117.365606
  },
  {
    "name": "Barrett Adolescent Centre Special School",
    "suburb": "TENNYSON",
    "state": "QLD",
    "postcode": "4105",
    "sector": "Government",
    "type": "Secondary",
    "latitude": -27.5272,
    "longitude": 153.0029
  },
  {
    "name": "Cleveland Education and Training Centre",
    "suburb": "Rowes Bay",
    "state": "QLD",
    "postcode": "4810",
    "sector": "Government",
    "type": "Combined",
    "latitude": -19.249668,
    "longitude": 146.784385
  },
  {
    "name": "Copperfield College",
    "suburb": "DELAHEY",
    "state": "VIC",
    "postcode": "3037",
    "sector": "Government",
    "type": "Secondary",
    "latitude": -37.719607,
    "longitude": 144.772454
  },
  {
    "name": "Induna School",
    "suburb": "SOUTH GRAFTON",
    "state": "NSW",
    "postcode": "2460",
    "sector": "Government",
    "type": "Secondary",
    "latitude": -29.722447,
    "longitude": 152.94639
  },
  {
    "name": "Sandy Bay Infant School",
    "suburb": "SANDY BAY",
    "state": "TAS",
    "postcode": "7005",
    "sector": "Government",
    "type": "Primary",
    "latitude": -42.90961521,
    "longitude": 147.34937869
  },
  {
    "name": "Western Australian College Of Agriculture - Harvey",
    "suburb": "WOKALUP",
    "state": "WA",
    "postcode": "6221",
    "sector": "Government",
    "type": "Secondary",
    "latitude": -33.129635,
    "longitude": 115.913733
  },
  {
    "name": "Kamaruka",
    "suburb": "SOUTH YARRA",
    "state": "VIC",
    "postcode": "3141",
    "sector": "Independent",
    "type": "Combined",
    "latitude": -37.83761581,
    "longitude": 144.99767865
  },
  {
    "name": "Barrenjoey Montessori School",
    "suburb": "AVALON",
    "state": "NSW",
    "postcode": "2107",
    "sector": "Independent",
    "type": "Primary",
    "latitude": -33.631238,
    "longitude": 151.334001
  },
  {
    "name": "Western English Language School",
    "suburb": "BRAYBROOK",
    "state": "VIC",
    "postcode": "3019",
    "sector": "Government",
    "type": "Combined",
    "latitude": -37.790995,
    "longitude": 144.85403623
  },
  {
    "name": "Mindarie Senior College",
    "suburb": "MINDARIE",
    "state": "WA",
    "postcode": "6030",
    "sector": "Government",
    "type": "Secondary",
    "latitude": -31.67751,
    "longitude": 115.70685
  },
  {
    "name": "University Senior College at Adelaide University - Jordan Campus",
    "suburb": "ADELAIDE UNIVERSITY",
    "state": "SA",
    "postcode": "5005",
    "sector": "Independent",
    "type": "Secondary",
    "latitude": -34.917855,
    "longitude": 138.601817
  },
  {
    "name": "Hubbard's School",
    "suburb": "MILTON",
    "state": "QLD",
    "postcode": "4064",
    "sector": "Independent",
    "type": "Secondary",
    "latitude": -27.47117,
    "longitude": 153.006528
  },
  {
    "name": "John Tonkin College Education Support Centre",
    "suburb": "MANDURAH",
    "state": "WA",
    "postcode": "6210",
    "sector": "Government",
    "type": "Secondary",
    "latitude": -32.51774,
    "longitude": 115.75531
  },
  {
    "name": "Cyril Jackson Senior Campus Education Support Centre",
    "suburb": "BASSENDEAN",
    "state": "WA",
    "postcode": "6054",
    "sector": "Government",
    "type": "Secondary",
    "latitude": -31.91352,
    "longitude": 115.9427
  },
  {
    "name": "Centennial Park School",
    "suburb": "RANDWICK",
    "state": "NSW",
    "postcode": "2031",
    "sector": "Government",
    "type": "Secondary",
    "latitude": -33.910564,
    "longitude": 151.243184
  },
  {
    "name": "Dubbo College Senior Campus",
    "suburb": "DUBBO",
    "state": "NSW",
    "postcode": "2830",
    "sector": "Government",
    "type": "Secondary",
    "latitude": -32.233022,
    "longitude": 148.625549
  },
  {
    "name": "Lavalla Catholic College",
    "suburb": "TRARALGON",
    "state": "VIC",
    "postcode": "3844",
    "sector": "Catholic",
    "type": "Secondary",
    "latitude": -38.200886266954285,
    "longitude": 146.51419568451692
  },
  {
    "name": "Eagleby Learning Centre - Centre for Continuing Secondary Education",
    "suburb": "EAGLEBY",
    "state": "QLD",
    "postcode": "4207",
    "sector": "Government",
    "type": "Secondary",
    "latitude": -27.694569,
    "longitude": 153.212609
  },
  {
    "name": "Wakefield School",
    "suburb": "WAKEFIELD",
    "state": "NSW",
    "postcode": "2278",
    "sector": "Government",
    "type": "Secondary",
    "latitude": -32.956712,
    "longitude": 151.56443
  },
  {
    "name": "Verona School",
    "suburb": "FAIRFIELD EAST",
    "state": "NSW",
    "postcode": "2165",
    "sector": "Government",
    "type": "Combined",
    "latitude": -33.868235,
    "longitude": 150.9709
  },