[
  {
    "name": "St Philomena School",
    "suburb": "PARK RIDGE",
    "state": "QLD",
    "postcode": "4125",
    "sector": "Independent",
    "type": "Combined",
    "latitude": -27.718998,
    "longitude": 153.08414
  },
  {
    "name": "Mt Maria College",
    "suburb": "MITCHELTON",
    "state": "QLD",
    "postcode": "4053",
    "sector": "Catholic",
    "type": "Secondary",
    "latitude": -27.412361,
    "longitude": 152.979765
  },
  {
    "name": "Autism Queensland Education & Therapy Centre",
    "suburb": "SUNNYBANK HILLS",
    "state": "QLD",
    "postcode": "4109",
    "sector": "Independent",
    "type": "Combined",
    "latitude": -27.597672,
    "longitude": 153.043054
  },
  {
    "name": "Lundavra State School",
    "suburb": "LUNDAVRA",
    "state": "QLD",
    "postcode": "4390",
    "sector": "Government",
    "type": "Primary",
    "latitude": -28.0702,
    "longitude": 149.982
  },
  {
    "name": "Kioma State School",
    "suburb": "KIOMA",
    "state": "QLD",
    "postcode": "4498",
    "sector": "Government",
    "type": "Primary",
    "latitude": -28.217032,
    "longitude": 149.793707
  },
  {
    "name": "St Lawrence State School",
    "suburb": "ST LAWRENCE",
    "state": "QLD",
    "postcode": "4707",
    "sector": "Government",
    "type": "Primary",
    "latitude": -22.3449,
    "longitude": 149.5297
  },
  {
    "name": "Hinchinbrook Christian School",
    "suburb": "INGHAM",
    "state": "QLD",
    "postcode": "4850",
    "sector": "Independent",
    "type": "Combined",
    "latitude": -18.638533,
    "longitude": 146.167661
  },
  {
    "name": "St Patrick's College",
    "suburb": "MACKAY",
    "state": "QLD",
    "postcode": "4740",
    "sector": "Catholic",
    "type": "Secondary",
    "latitude": -21.138565,
    "longitude": 149.184476
  },
  {
    "name": "Barrett Adolescent Centre Special School",
    "suburb": "TENNYSON",
    "state": "QLD",
    "postcode": "4105",
    "sector": "Government",
    "type": "Secondary",
    "latitude": -27.5272,
    "longitude": 153.0029
  },
  {
    "name": "Cleveland Education and Training Centre",
    "suburb": "Rowes Bay",
    "state": "QLD",
    "postcode": "4810",
    "sector": "Government",
    "type": "Combined",
    "latitude": -19.249668,
    "longitude": 146.784385
  },
  {
    "name": "Hubbard's School",
    "suburb": "MILTON",
    "state": "QLD",
    "postcode": "4064",
    "sector": "Independent",
    "type": "Secondary",
    "latitude": -27.47117,
    "longitude": 153.006528
  },
  {
    "name": "Eagleby Learning Centre - Centre for Continuing Secondary Education",
    "suburb": "EAGLEBY",
    "state": "QLD",
    "postcode": "4207",
    "sector": "Government",
    "type": "Secondary",
    "latitude": -27.694569,
    "longitude": 153.212609
  },
  {
    "name": "Spinifex State College - Mount Isa - Senior Campus",
    "suburb": "PIONEER",
    "state": "QLD",
    "postcode": "4825",
    "sector": "Government",
    "type": "Secondary",
    "latitude": -20.7223,
    "longitude": 139.51
  },
  {
    "name": "Queensland Academy for Science Mathematics and Technology",
    "suburb": "TOOWONG",
    "state": "QLD",
    "postcode": "4066",
    "sector": "Government",
    "type": "Secondary",
    "latitude": -27.486365,
    "longitude": 152.978986
  },
  {
    "name": "Western Cape College",
    "suburb": "ROCKY POINT",
    "state": "QLD",
    "postcode": "4874",
    "sector": "Government",
    "type": "Combined",
    "latitude": -12.626479,
    "longitude": 141.879926
  },
  {
    "name": "Spinifex State College - Mount Isa Education and Training Precinct",
    "suburb": "PARKSIDE",
    "state": "QLD",
    "postcode": "4825",
    "sector": "Government",
    "type": "Secondary",
    "latitude": -20.73481,
    "longitude": 139.487333
  },
  {
    "name": "Roma State College",
    "suburb": "ROMA",
    "state": "QLD",
    "postcode": "4455",
    "sector": "Government",
    "type": "Combined",
    "latitude": -26.565995,
    "longitude": 148.777888
  },
  {
    "name": "Albert Park Flexible School",
    "suburb": "MILTON",
    "state": "QLD",
    "postcode": "4064",
    "sector": "Catholic",
    "type": "Secondary",
    "latitude": -27.46615,
    "longitude": 153.0111
  },
  {
    "name": "Queensland Children's Hospital School",
    "suburb": "SOUTH BRISBANE",
    "state": "QLD",
    "postcode": "4101",
    "sector": "Government",
    "type": "Combined",
    "latitude": -27.484495,
    "longitude": 153.0272
  },
  {
    "name": "Burnett Youth Learning Centre",
    "suburb": "ELLIOTT",
    "state": "QLD",
    "postcode": "4670",
    "sector": "Independent",
    "type": "Secondary",
    "latitude": -25.007844,
    "longitude": 152.376101
  },
  {
    "name": "Queensland Academy for Creative Industries",
    "suburb": "KELVIN GROVE",
    "state": "QLD",
    "postcode": "4059",
    "sector": "Government",
    "type": "Secondary",
    "latitude": -27.453095,
    "longitude": 153.01439
  },
  {
    "name": "Tagai State College",
    "suburb": "THURSDAY ISLAND",
    "state": "QLD",
    "postcode": "4875",
    "sector": "Government",
    "type": "Combined",
    "latitude": -10.581798,
    "longitude": 142.221208
  },
  {
    "name": "Tec-NQ",
    "suburb": "DOUGLAS",
    "state": "QLD",
    "postcode": "4814",
    "sector": "Independent",
    "type": "Secondary",
    "latitude": -19.32244044,
    "longitude": 146.76435073
  },
  {
    "name": "Australian Trade College North Brisbane",
    "suburb": "SCARBOROUGH",
    "state": "QLD",
    "postcode": "4020",
    "sector": "Independent",
    "type": "Secondary",
    "latitude": -27.20489,
    "longitude": 153.110154
  },
  {
    "name": "QCHS - Royal Brisbane and ACT for Kids Campus",
    "suburb": "ROYAL BRISBANE HOSPITAL",
    "state": "QLD",
    "postcode": "4029",
    "sector": "Government",
    "type": "Secondary",
    "latitude": -27.449315,
    "longitude": 153.025819
  },
  {
    "name": "Queensland Academy for Health Sciences",
    "suburb": "SOUTHPORT",
    "state": "QLD",
    "postcode": "4215",
    "sector": "Government",
    "type": "Secondary",
    "latitude": -27.967002,
    "longitude": 153.382835
  },
  {
    "name": "Australian Industry Trade College",
    "suburb": "ROBINA",
    "state": "QLD",
    "postcode": "4226",
    "sector": "Independent",
    "type": "Secondary",
    "latitude": -28.091869,
    "longitude": 153.392376
  },
  {
    "name": "Innisfail State College",
    "suburb": "INNISFAIL ESTATE",
    "state": "QLD",
    "postcode": "4860",
    "sector": "Government",
    "type": "Secondary",
    "latitude": -17.516,
    "longitude": 146.037
  },
  {
    "name": "Music Industry College",
    "suburb": "FORTITUDE VALLEY",
    "state": "QLD",
    "postcode": "4006",
    "sector": "Independent",
    "type": "Secondary",
    "latitude": -27.45888364,
    "longitude": 153.03694761
  },
  {
    "name": "Staines Memorial College",
    "suburb": "REDBANK PLAINS",
    "state": "QLD",
    "postcode": "4301",
    "sector": "Independent",
    "type": "Combined",
    "latitude": -27.66846899,
    "longitude": 152.85128746
  },
  {
    "name": "Autism Queensland Education & Therapy Centre - Brighton Campus",
    "suburb": "BRIGHTON",
    "state": "QLD",
    "postcode": "4017",
    "sector": "Independent",
    "type": "Combined",
    "latitude": -27.293593,
    "longitude": 153.057296
  },
  {
    "name": "Calvary Christian College - Carbrook Campus",
    "suburb": "CARBROOK",
    "state": "QLD",
    "postcode": "4130",
    "sector": "Independent",
    "type": "Combined",
    "latitude": -27.681722,
    "longitude": 153.238855
  },
  {
    "name": "Emmaus College - Yaamba Road Campus",
    "suburb": "NORTH ROCKHAMPTON",
    "state": "QLD",
    "postcode": "4701",
    "sector": "Catholic",
    "type": "Secondary",
    "latitude": -23.347934,
    "longitude": 150.523416
  },
  {
    "name": "Our Lady of the Sacred Heart School Waiben - Hammond Island Campus",
    "suburb": "HAMMOND ISLAND",
    "state": "QLD",
    "postcode": "4875",
    "sector": "Catholic",
    "type": "Primary",
    "latitude": -10.549432,
    "longitude": 142.210369
  },
  {
    "name": "Columba Catholic College - St Mary's Campus",
    "suburb": "CHARTERS TOWERS",
    "state": "QLD",
    "postcode": "4820",
    "sector": "Catholic",
    "type": "Primary",
    "latitude": -20.074508,
    "longitude": 146.26333
  },
  {
    "name": "Queen of Apostles Primary School - Chuter Street Campus",
    "suburb": "STAFFORD HEIGHTS",
    "state": "QLD",
    "postcode": "4053",
    "sector": "Catholic",
    "type": "Primary",
    "latitude": -27.393361,
    "longitude": 153.007764
  },
  {
    "name": "Groves Christian College - Upper Primary Campus",
    "suburb": "KINGSTON",
    "state": "QLD",
    "postcode": "4114",
    "sector": "Independent",
    "type": "Combined",
    "latitude": -27.660619,
    "longitude": 153.098456
  },
  {
    "name": "St Anthony's Catholic College - Secondary Campus",
    "suburb": "DEERAGUN",
    "state": "QLD",
    "postcode": "4818",
    "sector": "Catholic",
    "type": "Secondary",
    "latitude": -19.239071,
    "longitude": 146.653949
  },
  {
    "name": "Grace Lutheran College - Caboolture Campus",
    "suburb": "CABOOLTURE",
    "state": "QLD",
    "postcode": "4510",
    "sector": "Independent",
    "type": "Secondary",
    "latitude": -27.07467,
    "longitude": 152.937399
  },
  {
    "name": "Mungalla Silver Lining School",
    "suburb": "MUTARNEE",
    "state": "QLD",
    "postcode": "4816",
    "sector": "Independent",
    "type": "Secondary",
    "latitude": -18.96667,
    "longitude": 146.291811
  },
  {
    "name": "The Springfield Anglican College",
    "suburb": "SPRINGFIELD",
    "state": "QLD",
    "postcode": "4300",
    "sector": "Independent",
    "type": "Secondary",
    "latitude": -27.670958,
    "longitude": 152.906511
  },
  {
    "name": "St Joseph's College - Waterford Place Campus",
    "suburb": "SPRING HILL",
    "state": "QLD",
    "postcode": "4000",
    "sector": "Catholic",
    "type": "Secondary",
    "latitude": -27.45733,
    "longitude": 153.028117
  },
  {
    "name": "Prince of Peace Lutheran College - Henderson Road Campus",
    "suburb": "EVERTON HILLS",
    "state": "QLD",
    "postcode": "4053",
    "sector": "Independent",
    "type": "Secondary",
    "latitude": -27.38932,
    "longitude": 152.965379
  },
  {
    "name": "Australian International Islamic College - Carrara Campus",
    "suburb": "CARRARA",
    "state": "QLD",
    "postcode": "4211",
    "sector": "Independent",
    "type": "Combined",
    "latitude": -28.002092,
    "longitude": 153.356415
  },
  {
    "name": "Norfolk Island Central School",
    "suburb": "NORFOLK ISLAND",
    "state": "QLD",
    "postcode": "2899",
    "sector": "Government",
    "type": "Combined",
    "latitude": -29.040954,
    "longitude": 167.967755
  },
  {
    "name": "Allora P-10 State School",
    "suburb": "ALLORA",
    "state": "QLD",
    "postcode": "4362",
    "sector": "Government",
    "type": "Combined",
    "latitude": -28.036607,
    "longitude": 151.98635
  },
  {
    "name": "Bald Hills State School",
    "suburb": "BALD HILLS",
    "state": "QLD",
    "postcode": "4036",
    "sector": "Government",
    "type": "Primary",
    "latitude": -27.3201,
    "longitude": 153.0068
  },
  {
    "name": "Beenleigh State School",
    "suburb": "BEENLEIGH",
    "state": "QLD",
    "postcode": "4207",
    "sector": "Government",
    "type": "Primary",
    "latitude": -27.7179,
    "longitude": 153.1998
  },
  {
    "name": "Yeronga State School",
    "suburb": "YERONGA",
    "state": "QLD",
    "postcode": "4104",
    "sector": "Government",
    "type": "Primary",
    "latitude": -27.518771,
    "longitude": 153.019927
  },
  {
    "name": "Bowen State School",
    "suburb": "BOWEN",
    "state": "QLD",
    "postcode": "4805",
    "sector": "Government",
    "type": "Primary",
    "latitude": -20.0102,
    "longitude": 148.2438
  },
  {
    "name": "Windsor State School",
    "suburb": "WINDSOR",
    "state": "QLD",
    "postcode": "4030",
    "sector": "Government",
    "type": "Primary",
    "latitude": -27.430843,
    "longitude": 153.030216
  },
  {
    "name": "Toowong State School",
    "suburb": "TOOWONG",
    "state": "QLD",
    "postcode": "4066",
    "sector": "Government",
    "type": "Primary",
    "latitude": -27.481846,
    "longitude": 152.989087
  },
  {
    "name": "Brookfield State School",
    "suburb": "BROOKFIELD",
    "state": "QLD",
    "postcode": "4069",
    "sector": "Government",
    "type": "Primary",
    "latitude": -27.4951,
    "longitude": 152.9136
  },
  {
    "name": "Bulimba State School",
    "suburb": "BULIMBA",
    "state": "QLD",
    "postcode": "4171",
    "sector": "Government",
    "type": "Primary",
    "latitude": -27.453114,
    "longitude": 153.065005
  },
  {
    "name": "Bundaberg Central State School",
    "suburb": "BUNDABERG CENTRAL",
    "state": "QLD",
    "postcode": "4670",
    "sector": "Government",
    "type": "Primary",
    "latitude": -24.869679,
    "longitude": 152.34814
  },
  {
    "name": "Bundamba State School",
    "suburb": "BUNDAMBA",
    "state": "QLD",
    "postcode": "4304",
    "sector": "Government",
    "type": "Primary",
    "latitude": -27.6113,
    "longitude": 152.8045
  },
  {
    "name": "Calliope State School",
    "suburb": "CALLIOPE",
    "state": "QLD",
    "postcode": "4680",
    "sector": "Government",
    "type": "Primary",
    "latitude": -24.0048,
    "longitude": 151.2029
  },
  {
    "name": "Clermont State School",
    "suburb": "CLERMONT",
    "state": "QLD",
    "postcode": "4721",
    "sector": "Government",
    "type": "Primary",
    "latitude": -22.8366,
    "longitude": 147.6322
  },
  {
    "name": "Cleveland State School",
    "suburb": "CLEVELAND",
    "state": "QLD",
    "postcode": "4163",
    "sector": "Government",
    "type": "Primary",
    "latitude": -27.5283,
    "longitude": 153.2703
  },
  {
    "name": "Ormiston State School",
    "suburb": "ORMISTON",
    "state": "QLD",
    "postcode": "4160",
    "sector": "Government",
    "type": "Primary",
    "latitude": -27.516519,
    "longitude": 153.258213
  },
  {
    "name": "Condamine State School",
    "suburb": "CONDAMINE",
    "state": "QLD",
    "postcode": "4416",
    "sector": "Government",
    "type": "Primary",
    "latitude": -26.924923,
    "longitude": 150.135035
  },
  {
    "name": "Acacia Ridge State School",
    "suburb": "ACACIA RIDGE",
    "state": "QLD",
    "postcode": "4110",
    "sector": "Government",
    "type": "Primary",
    "latitude": -27.5796,
    "longitude": 153.0161
  },
  {
    "name": "Mitchell State School",
    "suburb": "MITCHELL",
    "state": "QLD",
    "postcode": "4465",
    "sector": "Government",
    "type": "Combined",
    "latitude": -26.488248,
    "longitude": 147.9712
  },
  {
    "name": "Dalby State School",
    "suburb": "DALBY",
    "state": "QLD",
    "postcode": "4405",
    "sector": "Government",
    "type": "Primary",
    "latitude": -27.18497,
    "longitude": 151.262294
  },
  {
    "name": "Ramsay State School",
    "suburb": "RAMSAY",
    "state": "QLD",
    "postcode": "4358",
    "sector": "Government",
    "type": "Primary",
    "latitude": -27.7217,
    "longitude": 151.9626
  },
  {
    "name": "Drayton State School",
    "suburb": "DRAYTON",
    "state": "QLD",
    "postcode": "4350",
    "sector": "Government",
    "type": "Primary",
    "latitude": -27.6026,
    "longitude": 151.9118
  },
  {
    "name": "Coowonga State School",
    "suburb": "COOWONGA",
    "state": "QLD",
    "postcode": "4702",
    "sector": "Government",
    "type": "Primary",
    "latitude": -23.302891,
    "longitude": 150.730872
  },
  {
    "name": "Hendra State School",
    "suburb": "HENDRA",
    "state": "QLD",
    "postcode": "4011",
    "sector": "Government",
    "type": "Primary",
    "latitude": -27.421441,
    "longitude": 153.073632
  },
  {
    "name": "Eight Mile Plains State School",
    "suburb": "EIGHT MILE PLAINS",
    "state": "QLD",
    "postcode": "4113",
    "sector": "Government",
    "type": "Primary",
    "latitude": -27.593239,
    "longitude": 153.109127
  },
  {
    "name": "Enoggera State School",
    "suburb": "ENOGGERA",
    "state": "QLD",
    "postcode": "4051",
    "sector": "Government",
    "type": "Primary",
    "latitude": -27.417145,
    "longitude": 152.994134
  },
  {
    "name": "Fig Tree Pocket State School",
    "suburb": "FIG TREE POCKET",
    "state": "QLD",
    "postcode": "4069",
    "sector": "Government",
    "type": "Primary",
    "latitude": -27.527,
    "longitude": 152.9657
  },
  {
    "name": "Albert State School",
    "suburb": "MARYBOROUGH",
    "state": "QLD",
    "postcode": "4650",
    "sector": "Government",
    "type": "Primary",
    "latitude": -25.546752,
    "longitude": 152.70367
  },
  {
    "name": "Woongoolba State School",
    "suburb": "WOONGOOLBA",
    "state": "QLD",
    "postcode": "4207",
    "sector": "Government",
    "type": "Primary",
    "latitude": -27.744816,
    "longitude": 153.319418
  },
  {
    "name": "Freestone State School",
    "suburb": "FREESTONE",
    "state": "QLD",
    "postcode": "4370",
    "sector": "Government",
    "type": "Primary",
    "latitude": -28.1355,
    "longitude": 152.1378
  },
  {
    "name": "Gatton State School",
    "suburb": "GATTON",
    "state": "QLD",
    "postcode": "4343",
    "sector": "Government",
    "type": "Primary",
    "latitude": -27.5602,
    "longitude": 152.2784
  },
  {
    "name": "Gayndah State School",
    "suburb": "GAYNDAH",
    "state": "QLD",
    "postcode": "4625",
    "sector": "Government",
    "type": "Primary",
    "latitude": -25.624165,
    "longitude": 151.605754
  },
  {
    "name": "Nundah State School",
    "suburb": "NUNDAH",
    "state": "QLD",
    "postcode": "4012",
    "sector": "Government",
    "type": "Primary",
    "latitude": -27.402548,
    "longitude": 153.058168
  },
  {
    "name": "Gladstone Central State School",
    "suburb": "GLADSTONE CENTRAL",
    "state": "QLD",
    "postcode": "4680",
    "sector": "Government",
    "type": "Primary",
    "latitude": -23.842002,
    "longitude": 151.257812
  },
  {
    "name": "Goodna State School",
    "suburb": "GOODNA",
    "state": "QLD",
    "postcode": "4300",
    "sector": "Government",
    "type": "Primary",
    "latitude": -27.606637,
    "longitude": 152.893742
  },
  {
    "name": "Goondiwindi State School",
    "suburb": "GOONDIWINDI",
    "state": "QLD",
    "postcode": "4390",
    "sector": "Government",
    "type": "Primary",
    "latitude": -28.5432,
    "longitude": 150.3062
  },
  {
    "name": "Gracemere State School",
    "suburb": "GRACEMERE",
    "state": "QLD",
    "postcode": "4702",
    "sector": "Government",
    "type": "Primary",
    "latitude": -23.435617,
    "longitude": 150.453833
  },
  {
    "name": "Gympie Central State School",
    "suburb": "GYMPIE",
    "state": "QLD",
    "postcode": "4570",
    "sector": "Government",
    "type": "Primary",
    "latitude": -26.18829255,
    "longitude": 152.66499951
  },
  {
    "name": "Gilston State School",
    "suburb": "GILSTON",
    "state": "QLD",
    "postcode": "4211",
    "sector": "Government",
    "type": "Primary",
    "latitude": -28.039679,
    "longitude": 153.31101
  },
  {
    "name": "One Mile State School",
    "suburb": "GYMPIE",
    "state": "QLD",
    "postcode": "4570",
    "sector": "Government",
    "type": "Primary",
    "latitude": -26.1996,
    "longitude": 152.675328
  },
  {
    "name": "Helidon State School",
    "suburb": "HELIDON",
    "state": "QLD",
    "postcode": "4344",
    "sector": "Government",
    "type": "Primary",
    "latitude": -27.554884,
    "longitude": 152.126044
  },
  {
    "name": "Highfields State School",
    "suburb": "HIGHFIELDS",
    "state": "QLD",
    "postcode": "4352",
    "sector": "Government",
    "type": "Primary",
    "latitude": -27.4629,
    "longitude": 151.9557
  },
  {
    "name": "Geham State School",
    "suburb": "GEHAM",
    "state": "QLD",
    "postcode": "4352",
    "sector": "Government",
    "type": "Primary",
    "latitude": -27.4064,
    "longitude": 151.9959
  },
  {
    "name": "Inglewood State School",
    "suburb": "INGLEWOOD",
    "state": "QLD",
    "postcode": "4387",
    "sector": "Government",
    "type": "Combined",
    "latitude": -28.416453,
    "longitude": 151.07671
  },
  {
    "name": "Bouldercombe State School",
    "suburb": "BOULDERCOMBE",
    "state": "QLD",
    "postcode": "4702",
    "sector": "Government",
    "type": "Primary",
    "latitude": -23.5641,
    "longitude": 150.4718
  },
  {
    "name": "Gunalda State School",
    "suburb": "GUNALDA",
    "state": "QLD",
    "postcode": "4570",
    "sector": "Government",
    "type": "Primary",
    "latitude": -25.992346,
    "longitude": 152.559953
  },
  {
    "name": "Ipswich Central State School",
    "suburb": "IPSWICH",
    "state": "QLD",
    "postcode": "4305",
    "sector": "Government",
    "type": "Primary",
    "latitude": -27.6217,
    "longitude": 152.7683
  },
  {
    "name": "Craigslea State School",
    "suburb": "CHERMSIDE WEST",
    "state": "QLD",
    "postcode": "4032",
    "sector": "Government",
    "type": "Primary",
    "latitude": -27.3838,
    "longitude": 153.0173
  },
  {
    "name": "Ipswich North State School",
    "suburb": "NORTH IPSWICH",
    "state": "QLD",
    "postcode": "4305",
    "sector": "Government",
    "type": "Primary",
    "latitude": -27.602126,
    "longitude": 152.763022
  },
  {
    "name": "Sunnybank State School",
    "suburb": "SUNNYBANK",
    "state": "QLD",
    "postcode": "4109",
    "sector": "Government",
    "type": "Primary",
    "latitude": -27.575352,
    "longitude": 153.052003
  },
  {
    "name": "Isisford State School",
    "suburb": "ISISFORD",
    "state": "QLD",
    "postcode": "4731",
    "sector": "Government",
    "type": "Primary",
    "latitude": -24.260126,
    "longitude": 144.440021
  },
  {
    "name": "Jondaryan State School",
    "suburb": "JONDARYAN",
    "state": "QLD",
    "postcode": "4403",
    "sector": "Government",
    "type": "Primary",
    "latitude": -27.3731,
    "longitude": 151.5858
  },
  {
    "name": "Biggera Waters State School",
    "suburb": "BIGGERA WATERS",
    "state": "QLD",
    "postcode": "4216",
    "sector": "Government",
    "type": "Primary",
    "latitude": -27.927501,
    "longitude": 153.39708
  },
  {
    "name": "Lakes Creek State School",
    "suburb": "LAKES CREEK",
    "state": "QLD",
    "postcode": "4701",
    "sector": "Government",
    "type": "Primary",
    "latitude": -23.375744,
    "longitude": 150.560276
  },
  {
    "name": "Leyburn State School",
    "suburb": "LEYBURN",
    "state": "QLD",
    "postcode": "4365",
    "sector": "Government",
    "type": "Primary",
    "latitude": -28.0132,
    "longitude": 151.5784
  },
  {
    "name": "Logan Reserve State School",
    "suburb": "LOGAN RESERVE",
    "state": "QLD",
    "postcode": "4133",
    "sector": "Government",
    "type": "Primary",
    "latitude": -27.714303,
    "longitude": 153.114193
  },
  {
    "name": "Loganholme State School",
    "suburb": "LOGANHOLME",
    "state": "QLD",
    "postcode": "4129",
    "sector": "Government",
    "type": "Primary",
    "latitude": -27.686275,
    "longitude": 153.180808
  },
  {
    "name": "Mackay Central State School",
    "suburb": "MACKAY",
    "state": "QLD",
    "postcode": "4740",
    "sector": "Government",
    "type": "Primary",
    "latitude": -21.145246,
    "longitude": 149.182122
  },
  {
    "name": "Maryborough Central State School",
    "suburb": "MARYBOROUGH",
    "state": "QLD",
    "postcode": "4650",
    "sector": "Government",
    "type": "Primary",
    "latitude": -25.535521,
    "longitude": 152.699914
  },
  {
    "name": "Moggill State School",
    "suburb": "MOGGILL",
    "state": "QLD",
    "postcode": "4070",
    "sector": "Government",
    "type": "Primary",
    "latitude": -27.5693,
    "longitude": 152.8776
  },
  {
    "name": "Osborne State School",
    "suburb": "OSBORNE",
    "state": "QLD",
    "postcode": "4806",
    "sector": "Government",
    "type": "Primary",
    "latitude": -19.7005,
    "longitude": 147.3466
  },
  {
    "name": "Mount Perry State School",
    "suburb": "MOUNT PERRY",
    "state": "QLD",
    "postcode": "4671",
    "sector": "Government",
    "type": "Primary",
    "latitude": -25.182083,
    "longitude": 151.642869
  },
  {
    "name": "Murphy's Creek State School",
    "suburb": "MURPHYS CREEK",
    "state": "QLD",
    "postcode": "4352",
    "sector": "Government",
    "type": "Primary",
    "latitude": -27.4589,
    "longitude": 152.0513
  },
  {
    "name": "Nanango State School",
    "suburb": "NANANGO",
    "state": "QLD",
    "postcode": "4615",
    "sector": "Government",
    "type": "Primary",
    "latitude": -26.6717,
    "longitude": 152.0055
  },
  {
    "name": "Sherwood State School",
    "suburb": "SHERWOOD",
    "state": "QLD",
    "postcode": "4075",
    "sector": "Government",
    "type": "Primary",
    "latitude": -27.531508,
    "longitude": 152.983417
  },
  {
    "name": "Oxley State School",
    "suburb": "OXLEY",
    "state": "QLD",
    "postcode": "4075",
    "sector": "Government",
    "type": "Primary",
    "latitude": -27.563966,
    "longitude": 152.98083
  },
  {
    "name": "Petrie Terrace State School",
    "suburb": "PADDINGTON",
    "state": "QLD",
    "postcode": "4064",
    "sector": "Government",
    "type": "Primary",
    "latitude": -27.459964,
    "longitude": 153.00977
  },
  {
    "name": "Pimpama State School",
    "suburb": "PIMPAMA",
    "state": "QLD",
    "postcode": "4209",
    "sector": "Government",
    "type": "Primary",
    "latitude": -27.8171,
    "longitude": 153.2786
  },
  {
    "name": "Western Cape College - Mapoon",
    "suburb": "MAPOON",
    "state": "QLD",
    "postcode": "4874",
    "sector": "Government",
    "type": "Primary",
    "latitude": -12.0161,
    "longitude": 141.9
  },
  {
    "name": "Gabbinbar State School",
    "suburb": "CENTENARY HEIGHTS",
    "state": "QLD",
    "postcode": "4350",
    "sector": "Government",
    "type": "Primary",
    "latitude": -27.595624,
    "longitude": 151.969013
  },
  {
    "name": "Peak Crossing State School",
    "suburb": "PEAK CROSSING",
    "state": "QLD",
    "postcode": "4306",
    "sector": "Government",
    "type": "Primary",
    "latitude": -27.7798,
    "longitude": 152.7312
  },
  {
    "name": "Redbank Plains State School",
    "suburb": "REDBANK PLAINS",
    "state": "QLD",
    "postcode": "4301",
    "sector": "Government",
    "type": "Primary",
    "latitude": -27.64791,
    "longitude": 152.851517
  },
  {
    "name": "Rolleston State School",
    "suburb": "ROLLESTON",
    "state": "QLD",
    "postcode": "4702",
    "sector": "Government",
    "type": "Primary",
    "latitude": -24.462666,
    "longitude": 148.624401
  },
  {
    "name": "Samford State School",
    "suburb": "SAMFORD VILLAGE",
    "state": "QLD",
    "postcode": "4520",
    "sector": "Government",
    "type": "Primary",
    "latitude": -27.376329,
    "longitude": 152.881273
  },
  {
    "name": "Dysart State School",
    "suburb": "DYSART",
    "state": "QLD",
    "postcode": "4745",
    "sector": "Government",
    "type": "Primary",
    "latitude": -22.5878,
    "longitude": 148.3475
  },
  {
    "name": "Daisy Hill State School",
    "suburb": "DAISY HILL",
    "state": "QLD",
    "postcode": "4127",
    "sector": "Government",
    "type": "Primary",
    "latitude": -27.643076,
    "longitude": 153.152733
  },
  {
    "name": "Springsure State School",
    "suburb": "SPRINGSURE",
    "state": "QLD",
    "postcode": "4722",
    "sector": "Government",
    "type": "Combined",
    "latitude": -24.1158,
    "longitude": 148.0885
  },
  {
    "name": "Taroom State School",
    "suburb": "TAROOM",
    "state": "QLD",
    "postcode": "4420",
    "sector": "Government",
    "type": "Combined",
    "latitude": -25.639101,
    "longitude": 149.801055
  },
  {
    "name": "Tent Hill Lower State School",
    "suburb": "LOWER TENTHILL",
    "state": "QLD",
    "postcode": "4343",
    "sector": "Government",
    "type": "Primary",
    "latitude": -27.591972,
    "longitude": 152.236244
  },
  {
    "name": "Tiaro State School",
    "suburb": "TIARO",
    "state": "QLD",
    "postcode": "4650",
    "sector": "Government",
    "type": "Primary",
    "latitude": -25.72838746459773,
    "longitude": 152.58122897390226
  },
  {
    "name": "Ironside State School",
    "suburb": "ST LUCIA",
    "state": "QLD",
    "postcode": "4067",
    "sector": "Government",
    "type": "Primary",
    "latitude": -27.500611,
    "longitude": 152.996097
  },
  {
    "name": "Toowoomba North State School",
    "suburb": "TOOWOOMBA",
    "state": "QLD",
    "postcode": "4350",
    "sector": "Government",
    "type": "Primary",
    "latitude": -27.556675,
    "longitude": 151.948737
  },
  {
    "name": "Goombungee State School",
    "suburb": "GOOMBUNGEE",
    "state": "QLD",
    "postcode": "4354",
    "sector": "Government",
    "type": "Primary",
    "latitude": -27.302164,
    "longitude": 151.852659
  },
  {
    "name": "Townsville Central State School",
    "suburb": "NORTH WARD",
    "state": "QLD",
    "postcode": "4810",
    "sector": "Government",
    "type": "Primary",
    "latitude": -19.25115,
    "longitude": 146.811829
  },
  {
    "name": "Haigslea State School",
    "suburb": "HAIGSLEA",
    "state": "QLD",
    "postcode": "4306",
    "sector": "Government",
    "type": "Primary",
    "latitude": -27.5717,
    "longitude": 152.6297
  },
  {
    "name": "Amberley District State School",
    "suburb": "YAMANTO",
    "state": "QLD",
    "postcode": "4305",
    "sector": "Government",
    "type": "Primary",
    "latitude": -27.6575,
    "longitude": 152.7501
  },
  {
    "name": "Warwick Central State School",
    "suburb": "WARWICK",
    "state": "QLD",
    "postcode": "4370",
    "sector": "Government",
    "type": "Primary",
    "latitude": -28.217477,
    "longitude": 152.029726
  },
  {
    "name": "Cordalba State School",
    "suburb": "CORDALBA",
    "state": "QLD",
    "postcode": "4660",
    "sector": "Government",
    "type": "Primary",
    "latitude": -25.159117,
    "longitude": 152.212041
  },
  {
    "name": "Westwood State School",
    "suburb": "WESTWOOD",
    "state": "QLD",
    "postcode": "4702",
    "sector": "Government",
    "type": "Primary",
    "latitude": -23.6173,
    "longitude": 150.1545
  },
  {
    "name": "Woodhill State School",
    "suburb": "WOODHILL",
    "state": "QLD",
    "postcode": "4285",
    "sector": "Government",
    "type": "Primary",
    "latitude": -27.892995,
    "longitude": 152.974105
  },
  {
    "name": "Logan Village State School",
    "suburb": "LOGAN VILLAGE",
    "state": "QLD",
    "postcode": "4207",
    "sector": "Government",
    "type": "Primary",
    "latitude": -27.7653,
    "longitude": 153.1064
  },
  {
    "name": "Coomera State School",
    "suburb": "COOMERA",
    "state": "QLD",
    "postcode": "4209",
    "sector": "Government",
    "type": "Primary",
    "latitude": -27.8686,
    "longitude": 153.3153
  },
  {
    "name": "Morayfield State School",
    "suburb": "MORAYFIELD",
    "state": "QLD",
    "postcode": "4506",
    "sector": "Government",
    "type": "Primary",
    "latitude": -27.106571,
    "longitude": 152.947001
  },
  {
    "name": "Glenvale State School",
    "suburb": "GLENVALE",
    "state": "QLD",
    "postcode": "4350",
    "sector": "Government",
    "type": "Primary",
    "latitude": -27.5625,
    "longitude": 151.9028
  },
  {
    "name": "Tingalpa State School",
    "suburb": "TINGALPA",
    "state": "QLD",
    "postcode": "4173",
    "sector": "Government",
    "type": "Primary",
    "latitude": -27.4735,
    "longitude": 153.1264
  },
  {
    "name": "Upper Mount Gravatt State School",
    "suburb": "UPPER MOUNT GRAVATT",
    "state": "QLD",
    "postcode": "4122",
    "sector": "Government",
    "type": "Primary",
    "latitude": -27.556435,
    "longitude": 153.079838
  },
  {
    "name": "Stanwell State School",
    "suburb": "STANWELL",
    "state": "QLD",
    "postcode": "4702",
    "sector": "Government",
    "type": "Primary",
    "latitude": -23.4853,
    "longitude": 150.3216
  },
  {
    "name": "Waterford State School",
    "suburb": "WATERFORD",
    "state": "QLD",
    "postcode": "4133",
    "sector": "Government",
    "type": "Primary",
    "latitude": -27.696,
    "longitude": 153.1454
  },
  {
    "name": "Rosewood State School",
    "suburb": "ROSEWOOD",
    "state": "QLD",
    "postcode": "4340",
    "sector": "Government",
    "type": "Primary",
    "latitude": -27.643654,
    "longitude": 152.592754
  },
  {
    "name": "Stanthorpe State School",
    "suburb": "STANTHORPE",
    "state": "QLD",
    "postcode": "4380",
    "sector": "Government",
    "type": "Primary",
    "latitude": -28.649844,
    "longitude": 151.933944
  },
  {
    "name": "St George State School",
    "suburb": "ST GEORGE",
    "state": "QLD",
    "postcode": "4487",
    "sector": "Government",
    "type": "Primary",
    "latitude": -28.038029,
    "longitude": 148.580728
  },
  {
    "name": "Cawarral State School",
    "suburb": "CAWARRAL",
    "state": "QLD",
    "postcode": "4702",
    "sector": "Government",
    "type": "Primary",
    "latitude": -23.254,
    "longitude": 150.6756
  },
  {
    "name": "Cardwell State School",
    "suburb": "CARDWELL",
    "state": "QLD",
    "postcode": "4849",
    "sector": "Government",
    "type": "Primary",
    "latitude": -18.26865,
    "longitude": 146.030532
  },
  {
    "name": "Pullenvale State School",
    "suburb": "PULLENVALE",
    "state": "QLD",
    "postcode": "4069",
    "sector": "Government",
    "type": "Primary",
    "latitude": -27.5336,
    "longitude": 152.895
  },
  {
    "name": "Ravenswood State School",
    "suburb": "RAVENSWOOD",
    "state": "QLD",
    "postcode": "4816",
    "sector": "Government",
    "type": "Primary",
    "latitude": -20.096323,
    "longitude": 146.887043
  },
  {
    "name": "Surat State School",
    "suburb": "SURAT",
    "state": "QLD",
    "postcode": "4417",
    "sector": "Government",
    "type": "Combined",
    "latitude": -27.1543,
    "longitude": 149.0671
  },
  {
    "name": "Mansfield State School",
    "suburb": "MANSFIELD",
    "state": "QLD",
    "postcode": "4122",
    "sector": "Government",
    "type": "Primary",
    "latitude": -27.5424,
    "longitude": 153.1054
  },
  {
    "name": "Roma State College - Junior Campus",
    "suburb": "ROMA",
    "state": "QLD",
    "postcode": "4455",
    "sector": "Government",
    "type": "Primary",
    "latitude": -26.573807,
    "longitude": 148.787681
  },
  {
    "name": "Grandchester State School",
    "suburb": "GRANDCHESTER",
    "state": "QLD",
    "postcode": "4340",
    "sector": "Government",
    "type": "Primary",
    "latitude": -27.665608,
    "longitude": 152.465311
  },
  {
    "name": "Glamorgan Vale State School",
    "suburb": "GLAMORGAN VALE",
    "state": "QLD",
    "postcode": "4306",
    "sector": "Government",
    "type": "Primary",
    "latitude": -27.514872,
    "longitude": 152.631878
  },
  {
    "name": "Tambo State School",
    "suburb": "TAMBO",
    "state": "QLD",
    "postcode": "4478",
    "sector": "Government",
    "type": "Combined",
    "latitude": -24.8845,
    "longitude": 146.2538
  },
  {
    "name": "Yangan State School",
    "suburb": "YANGAN",
    "state": "QLD",
    "postcode": "4371",
    "sector": "Government",
    "type": "Primary",
    "latitude": -28.198089,
    "longitude": 152.215517
  },
  {
    "name": "Mutdapilly State School",
    "suburb": "MUTDAPILLY",
    "state": "QLD",
    "postcode": "4307",
    "sector": "Government",
    "type": "Primary",
    "latitude": -27.771,
    "longitude": 152.6506
  },
  {
    "name": "Sandgate State School",
    "suburb": "SANDGATE",
    "state": "QLD",
    "postcode": "4017",
    "sector": "Government",
    "type": "Primary",
    "latitude": -27.320642,
    "longitude": 153.065687
  },
  {
    "name": "Emu Creek State School",
    "suburb": "EAST GREENMOUNT",
    "state": "QLD",
    "postcode": "4359",
    "sector": "Government",
    "type": "Primary",
    "latitude": -27.7834,
    "longitude": 151.9448
  },
  {
    "name": "Allenstown State School",
    "suburb": "ALLENSTOWN",
    "state": "QLD",
    "postcode": "4700",
    "sector": "Government",
    "type": "Primary",
    "latitude": -23.3919,
    "longitude": 150.5027
  },
  {
    "name": "Millchester State School",
    "suburb": "MILLCHESTER",
    "state": "QLD",
    "postcode": "4820",
    "sector": "Government",
    "type": "Primary",
    "latitude": -20.088952,
    "longitude": 146.275146
  },
  {
    "name": "Beaudesert State School",
    "suburb": "BEAUDESERT",
    "state": "QLD",
    "postcode": "4285",
    "sector": "Government",
    "type": "Primary",
    "latitude": -27.9889,
    "longitude": 153.0024
  },
  {
    "name": "Mudgeeraba Creek State School",
    "suburb": "MUDGEERABA",
    "state": "QLD",
    "postcode": "4213",
    "sector": "Government",
    "type": "Primary",
    "latitude": -28.0868,
    "longitude": 153.3471
  },
  {
    "name": "Cedar Creek State School",
    "suburb": "CEDAR CREEK",
    "state": "QLD",
    "postcode": "4207",
    "sector": "Government",
    "type": "Primary",
    "latitude": -27.8276,
    "longitude": 153.1793
  },
  {
    "name": "Bundaberg North State School",
    "suburb": "BUNDABERG NORTH",
    "state": "QLD",
    "postcode": "4670",
    "sector": "Government",
    "type": "Primary",
    "latitude": -24.852304,
    "longitude": 152.340355
  },
  {
    "name": "Clontarf Beach State School",
    "suburb": "CLONTARF",
    "state": "QLD",
    "postcode": "4019",
    "sector": "Government",
    "type": "Primary",
    "latitude": -27.253416,
    "longitude": 153.0812
  },
  {
    "name": "Killarney P-10 State School",
    "suburb": "KILLARNEY",
    "state": "QLD",
    "postcode": "4373",
    "sector": "Government",
    "type": "Combined",
    "latitude": -28.3413,
    "longitude": 152.2979
  },
  {
    "name": "Humpybong State School",
    "suburb": "MARGATE",
    "state": "QLD",
    "postcode": "4019",
    "sector": "Government",
    "type": "Primary",
    "latitude": -27.246573,
    "longitude": 153.108783
  },
  {
    "name": "Croydon State School",
    "suburb": "CROYDON",
    "state": "QLD",
    "postcode": "4871",
    "sector": "Government",
    "type": "Primary",
    "latitude": -18.2038,
    "longitude": 142.2494
  },
  {
    "name": "Oakey State School",
    "suburb": "OAKEY",
    "state": "QLD",
    "postcode": "4401",
    "sector": "Government",
    "type": "Primary",
    "latitude": -27.4394,
    "longitude": 151.7205
  },
  {
    "name": "Mossman State School",
    "suburb": "MOSSMAN",
    "state": "QLD",
    "postcode": "4873",
    "sector": "Government",
    "type": "Primary",
    "latitude": -16.461767,
    "longitude": 145.373994
  },
  {
    "name": "Kilkivan State School",
    "suburb": "KILKIVAN",
    "state": "QLD",
    "postcode": "4600",
    "sector": "Government",
    "type": "Combined",
    "latitude": -26.0877,
    "longitude": 152.2414
  },
  {
    "name": "Fernvale State School",
    "suburb": "FERNVALE",
    "state": "QLD",
    "postcode": "4306",
    "sector": "Government",
    "type": "Primary",
    "latitude": -27.446906,
    "longitude": 152.644055
  },
  {
    "name": "Clare State School",
    "suburb": "CLARE",
    "state": "QLD",
    "postcode": "4807",
    "sector": "Government",
    "type": "Primary",
    "latitude": -19.783769,
    "longitude": 147.226538
  },
  {
    "name": "Clinton State School",
    "suburb": "CLINTON",
    "state": "QLD",
    "postcode": "4680",
    "sector": "Government",
    "type": "Primary",
    "latitude": -23.88015,
    "longitude": 151.222573
  },
  {
    "name": "Comet State School",
    "suburb": "Comet",
    "state": "QLD",
    "postcode": "4702",
    "sector": "Government",
    "type": "Primary",
    "latitude": -23.6068217846532,
    "longitude": 148.545895769798
  },
  {
    "name": "Noosaville State School",
    "suburb": "NOOSAVILLE",
    "state": "QLD",
    "postcode": "4566",
    "sector": "Government",
    "type": "Primary",
    "latitude": -26.409138,
    "longitude": 153.029226
  },
  {
    "name": "Millmerran State School",
    "suburb": "MILLMERRAN",
    "state": "QLD",
    "postcode": "4357",
    "sector": "Government",
    "type": "Combined",
    "latitude": -27.877692,
    "longitude": 151.265648
  },
  {
    "name": "Cooktown State School",
    "suburb": "COOKTOWN",
    "state": "QLD",
    "postcode": "4895",
    "sector": "Government",
    "type": "Combined",
    "latitude": -15.481863,
    "longitude": 145.250958
  },
  {
    "name": "Georgetown State School",
    "suburb": "GEORGETOWN",
    "state": "QLD",
    "postcode": "4871",
    "sector": "Government",
    "type": "Primary",
    "latitude": -18.294551,
    "longitude": 143.547234
  },
  {
    "name": "Meringandan State School",
    "suburb": "MERINGANDAN WEST",
    "state": "QLD",
    "postcode": "4352",
    "sector": "Government",
    "type": "Primary",
    "latitude": -27.430431,
    "longitude": 151.904921
  },
  {
    "name": "Jinibara State School",
    "suburb": "NARANGBA",
    "state": "QLD",
    "postcode": "4504",
    "sector": "Government",
    "type": "Primary",
    "latitude": -27.1811,
    "longitude": 152.9499
  },
  {
    "name": "Tewantin State School",
    "suburb": "TEWANTIN",
    "state": "QLD",
    "postcode": "4565",
    "sector": "Government",
    "type": "Primary",
    "latitude": -26.3901,
    "longitude": 153.0326
  },
  {
    "name": "Wallumbilla State School",
    "suburb": "WALLUMBILLA",
    "state": "QLD",
    "postcode": "4428",
    "sector": "Government",
    "type": "Combined",
    "latitude": -26.584073,
    "longitude": 149.185949
  },
  {
    "name": "Petrie State School",
    "suburb": "PETRIE",
    "state": "QLD",
    "postcode": "4502",
    "sector": "Government",
    "type": "Primary",
    "latitude": -27.267947,
    "longitude": 152.972207
  },
  {
    "name": "Nebo State School",
    "suburb": "NEBO",
    "state": "QLD",
    "postcode": "4742",
    "sector": "Government",
    "type": "Primary",
    "latitude": -21.68989,
    "longitude": 148.689757
  },
  {
    "name": "Charleville State School",
    "suburb": "CHARLEVILLE",
    "state": "QLD",
    "postcode": "4470",
    "sector": "Government",
    "type": "Primary",
    "latitude": -26.404865,
    "longitude": 146.241913
  },
  {
    "name": "Ashgrove State School",
    "suburb": "ASHGROVE",
    "state": "QLD",
    "postcode": "4060",
    "sector": "Government",
    "type": "Primary",
    "latitude": -27.4481,
    "longitude": 152.9765
  },
  {
    "name": "Begonia State School",
    "suburb": "BEGONIA",
    "state": "QLD",
    "postcode": "4487",
    "sector": "Government",
    "type": "Primary",
    "latitude": -27.3357547410736,
    "longitude": 148.397253865478
  },
  {
    "name": "Albany Creek State School",
    "suburb": "ALBANY CREEK",
    "state": "QLD",
    "postcode": "4035",
    "sector": "Government",
    "type": "Primary",
    "latitude": -27.346149,
    "longitude": 152.970755
  },
  {
    "name": "Dayboro State School",
    "suburb": "DAYBORO",
    "state": "QLD",
    "postcode": "4521",
    "sector": "Government",
    "type": "Primary",
    "latitude": -27.194406,
    "longitude": 152.820049
  },
  {
    "name": "MacGregor State School",
    "suburb": "MACGREGOR",
    "state": "QLD",
    "postcode": "4109",
    "sector": "Government",
    "type": "Primary",
    "latitude": -27.571782,
    "longitude": 153.067016
  },
  {
    "name": "Granville State School",
    "suburb": "GRANVILLE",
    "state": "QLD",
    "postcode": "4650",
    "sector": "Government",
    "type": "Primary",
    "latitude": -25.538713,
    "longitude": 152.714708
  },
  {
    "name": "Robina State High School",
    "suburb": "ROBINA",
    "state": "QLD",
    "postcode": "4226",
    "sector": "Government",
    "type": "Secondary",
    "latitude": -28.073908,
    "longitude": 153.376585
  },
  {
    "name": "Cambooya State School",
    "suburb": "CAMBOOYA",
    "state": "QLD",
    "postcode": "4358",
    "sector": "Government",
    "type": "Primary",
    "latitude": -27.7088,
    "longitude": 151.8669
  },
  {
    "name": "Mount Gravatt State School",
    "suburb": "MOUNT GRAVATT",
    "state": "QLD",
    "postcode": "4122",
    "sector": "Government",
    "type": "Primary",
    "latitude": -27.5327,
    "longitude": 153.0741
  },
  {
    "name": "Esk State School",
    "suburb": "ESK",
    "state": "QLD",
    "postcode": "4312",
    "sector": "Government",
    "type": "Primary",
    "latitude": -27.247743,
    "longitude": 152.425994
  },
  {
    "name": "Tallebudgera State School",
    "suburb": "TALLEBUDGERA",
    "state": "QLD",
    "postcode": "4228",
    "sector": "Government",
    "type": "Primary",
    "latitude": -28.139992,
    "longitude": 153.430151
  },
  {
    "name": "Lakeland State School",
    "suburb": "LAKELAND",
    "state": "QLD",
    "postcode": "4871",
    "sector": "Government",
    "type": "Primary",
    "latitude": -15.857105,
    "longitude": 144.857307
  },
  {
    "name": "Jericho State School",
    "suburb": "JERICHO",
    "state": "QLD",
    "postcode": "4728",
    "sector": "Government",
    "type": "Primary",
    "latitude": -23.6042,
    "longitude": 146.1295
  },
  {
    "name": "Brisbane Central State School",
    "suburb": "SPRING HILL",
    "state": "QLD",
    "postcode": "4000",
    "sector": "Government",
    "type": "Primary",
    "latitude": -27.458813,
    "longitude": 153.026945
  },
  {
    "name": "Port Curtis Road State School",
    "suburb": "PORT CURTIS",
    "state": "QLD",
    "postcode": "4700",
    "sector": "Government",
    "type": "Primary",
    "latitude": -23.413242,
    "longitude": 150.514108
  },
  {
    "name": "Northern Beaches State High School",
    "suburb": "DEERAGUN",
    "state": "QLD",
    "postcode": "4818",
    "sector": "Government",
    "type": "Secondary",
    "latitude": -19.2479,
    "longitude": 146.6736
  },
  {
    "name": "West End State School",
    "suburb": "WEST END",
    "state": "QLD",
    "postcode": "4101",
    "sector": "Government",
    "type": "Primary",
    "latitude": -27.480277,
    "longitude": 153.008009
  },
  {
    "name": "Halifax State School",
    "suburb": "HALIFAX",
    "state": "QLD",
    "postcode": "4850",
    "sector": "Government",
    "type": "Primary",
    "latitude": -18.583458,
    "longitude": 146.284909
  },
  {
    "name": "Charters Towers Central State School",
    "suburb": "CHARTERS TOWERS",
    "state": "QLD",
    "postcode": "4820",
    "sector": "Government",
    "type": "Primary",
    "latitude": -20.079896,
    "longitude": 146.263415
  },
  {
    "name": "Tinana State School",
    "suburb": "TINANA",
    "state": "QLD",
    "postcode": "4650",
    "sector": "Government",
    "type": "Primary",
    "latitude": -25.558592,
    "longitude": 152.66775
  },
  {
    "name": "Mungar State School",
    "suburb": "MUNGAR",
    "state": "QLD",
    "postcode": "4650",
    "sector": "Government",
    "type": "Primary",
    "latitude": -25.603854,
    "longitude": 152.590998
  },
  {
    "name": "Nerang State School",
    "suburb": "NERANG",
    "state": "QLD",
    "postcode": "4211",
    "sector": "Government",
    "type": "Primary",
    "latitude": -27.9886,
    "longitude": 153.3385
  },
  {
    "name": "Coorparoo State School",
    "suburb": "COORPAROO",
    "state": "QLD",
    "postcode": "4151",
    "sector": "Government",
    "type": "Primary",
    "latitude": -27.494,
    "longitude": 153.0606
  },
  {
    "name": "Eulo State School",
    "suburb": "EULO",
    "state": "QLD",
    "postcode": "4491",
    "sector": "Government",
    "type": "Primary",
    "latitude": -28.157931,
    "longitude": 145.050127
  },
  {
    "name": "Buderim Mountain State School",
    "suburb": "BUDERIM",
    "state": "QLD",
    "postcode": "4556",
    "sector": "Government",
    "type": "Primary",
    "latitude": -26.6846,
    "longitude": 153.0539
  },
  {
    "name": "Tivoli State School",
    "suburb": "TIVOLI",
    "state": "QLD",
    "postcode": "4305",
    "sector": "Government",
    "type": "Primary",
    "latitude": -27.584,
    "longitude": 152.7775
  },
  {
    "name": "Warwick East State School",
    "suburb": "WARWICK",
    "state": "QLD",
    "postcode": "4370",
    "sector": "Government",
    "type": "Primary",
    "latitude": -28.2148,
    "longitude": 152.0386
  },
  {
    "name": "Belmont State School",
    "suburb": "CARINDALE",
    "state": "QLD",
    "postcode": "4152",
    "sector": "Government",
    "type": "Primary",
    "latitude": -27.503,
    "longitude": 153.1156
  },
  {
    "name": "Ferny Grove State School",
    "suburb": "FERNY GROVE",
    "state": "QLD",
    "postcode": "4055",
    "sector": "Government",
    "type": "Primary",
    "latitude": -27.403128,
    "longitude": 152.929301
  },
  {
    "name": "Newmarket State School",
    "suburb": "NEWMARKET",
    "state": "QLD",
    "postcode": "4051",
    "sector": "Government",
    "type": "Primary",
    "latitude": -27.432033,
    "longitude": 153.004101
  },
  {
    "name": "Redland Bay State School",
    "suburb": "REDLAND BAY",
    "state": "QLD",
    "postcode": "4165",
    "sector": "Government",
    "type": "Primary",
    "latitude": -27.61867,
    "longitude": 153.2928
  },
  {
    "name": "Tannum Sands State High School",
    "suburb": "TANNUM SANDS",
    "state": "QLD",
    "postcode": "4680",
    "sector": "Government",
    "type": "Secondary",
    "latitude": -23.9596,
    "longitude": 151.3643
  },
  {
    "name": "Healy State School",
    "suburb": "HEALY",
    "state": "QLD",
    "postcode": "4825",
    "sector": "Government",
    "type": "Primary",
    "latitude": -20.74156,
    "longitude": 139.500376
  },
  {
    "name": "Victoria Point State High School",
    "suburb": "VICTORIA POINT",
    "state": "QLD",
    "postcode": "4165",
    "sector": "Government",
    "type": "Secondary",
    "latitude": -27.5956,
    "longitude": 153.2878
  },
  {
    "name": "Edge Hill State School",
    "suburb": "EDGE HILL",
    "state": "QLD",
    "postcode": "4870",
    "sector": "Government",
    "type": "Primary",
    "latitude": -16.9052,
    "longitude": 145.7425
  },
  {
    "name": "St Helens State School",
    "suburb": "ST HELENS",
    "state": "QLD",
    "postcode": "4650",
    "sector": "Government",
    "type": "Primary",
    "latitude": -25.5028,
    "longitude": 152.7106
  },
  {
    "name": "Deception Bay State School",
    "suburb": "DECEPTION BAY",
    "state": "QLD",
    "postcode": "4508",
    "sector": "Government",
    "type": "Primary",
    "latitude": -27.191031,
    "longitude": 153.029347
  },
  {
    "name": "Prenzlau State School",
    "suburb": "PRENZLAU",
    "state": "QLD",
    "postcode": "4311",
    "sector": "Government",
    "type": "Primary",
    "latitude": -27.534,
    "longitude": 152.5233
  },
  {
    "name": "Palm Beach State School",
    "suburb": "PALM BEACH",
    "state": "QLD",
    "postcode": "4221",
    "sector": "Government",
    "type": "Primary",
    "latitude": -28.110394,
    "longitude": 153.463208
  },
  {
    "name": "Homestead State School",
    "suburb": "HOMESTEAD",
    "state": "QLD",
    "postcode": "4816",
    "sector": "Government",
    "type": "Primary",
    "latitude": -20.3607,
    "longitude": 145.6573
  },
  {
    "name": "Lowood State School",
    "suburb": "LOWOOD",
    "state": "QLD",
    "postcode": "4311",
    "sector": "Government",
    "type": "Primary",
    "latitude": -27.465821,
    "longitude": 152.581785
  },
  {
    "name": "Hopevale Campus of CYAAA",
    "suburb": "HOPE VALE",
    "state": "QLD",
    "postcode": "4895",
    "sector": "Government",
    "type": "Primary",
    "latitude": -15.295194,
    "longitude": 145.108213
  },
  {
    "name": "Chinchilla State School",
    "suburb": "CHINCHILLA",
    "state": "QLD",
    "postcode": "4413",
    "sector": "Government",
    "type": "Primary",
    "latitude": -26.740669,
    "longitude": 150.626385
  },
  {
    "name": "Thornton State School",
    "suburb": "THORNTON",
    "state": "QLD",
    "postcode": "4341",
    "sector": "Government",
    "type": "Primary",
    "latitude": -27.798024,
    "longitude": 152.371982
  },
  {
    "name": "Silkstone State School",
    "suburb": "SILKSTONE",
    "state": "QLD",
    "postcode": "4304",
    "sector": "Government",
    "type": "Primary",
    "latitude": -27.619052,
    "longitude": 152.784514
  },
  {
    "name": "Ferny Hills State School",
    "suburb": "FERNY HILLS",
    "state": "QLD",
    "postcode": "4055",
    "sector": "Government",
    "type": "Primary",
    "latitude": -27.4021,
    "longitude": 152.9434
  },
  {
    "name": "Herberton State School",
    "suburb": "MOOMIN",
    "state": "QLD",
    "postcode": "4887",
    "sector": "Government",
    "type": "Combined",
    "latitude": -17.372707787608732,
    "longitude": 145.37928488360603
  },
  {
    "name": "Manly West State School",
    "suburb": "MANLY WEST",
    "state": "QLD",
    "postcode": "4179",
    "sector": "Government",
    "type": "Primary",
    "latitude": -27.469,
    "longitude": 153.1743
  },
  {
    "name": "Minimbah State School",
    "suburb": "MORAYFIELD",
    "state": "QLD",
    "postcode": "4506",
    "sector": "Government",
    "type": "Primary",
    "latitude": -27.110745,
    "longitude": 152.924212
  },
  {
    "name": "Dingo State School",
    "suburb": "DINGO",
    "state": "QLD",
    "postcode": "4702",
    "sector": "Government",
    "type": "Primary",
    "latitude": -23.645771,
    "longitude": 149.330138
  },
  {
    "name": "Mount Crosby State School",
    "suburb": "KARANA DOWNS",
    "state": "QLD",
    "postcode": "4306",
    "sector": "Government",
    "type": "Primary",
    "latitude": -27.550919,
    "longitude": 152.807199
  },
  {
    "name": "Tarampa State School",
    "suburb": "TARAMPA",
    "state": "QLD",
    "postcode": "4311",
    "sector": "Government",
    "type": "Primary",
    "latitude": -27.486907,
    "longitude": 152.546057
  },
  {
    "name": "Wellington Point State School",
    "suburb": "WELLINGTON POINT",
    "state": "QLD",
    "postcode": "4160",
    "sector": "Government",
    "type": "Primary",
    "latitude": -27.4911,
    "longitude": 153.2396
  },
  {
    "name": "Aurukun State School",
    "suburb": "AURUKUN",
    "state": "QLD",
    "postcode": "4892",
    "sector": "Government",
    "type": "Combined",
    "latitude": -13.3539,
    "longitude": 141.7288
  },
  {
    "name": "Zillmere State School",
    "suburb": "ZILLMERE",
    "state": "QLD",
    "postcode": "4034",
    "sector": "Government",
    "type": "Primary",
    "latitude": -27.36477,
    "longitude": 153.037452
  },
  {
    "name": "Jamboree Heights State School",
    "suburb": "JAMBOREE HEIGHTS",
    "state": "QLD",
    "postcode": "4074",
    "sector": "Government",
    "type": "Primary",
    "latitude": -27.554507,
    "longitude": 152.929351
  },
  {
    "name": "Kalkie State School",
    "suburb": "KALKIE",
    "state": "QLD",
    "postcode": "4670",
    "sector": "Government",
    "type": "Primary",
    "latitude": -24.845894,
    "longitude": 152.397098
  },
  {
    "name": "Carbrook State School",
    "suburb": "CARBROOK",
    "state": "QLD",
    "postcode": "4130",
    "sector": "Government",
    "type": "Primary",
    "latitude": -27.677651,
    "longitude": 153.235185
  },
  {
    "name": "Kolan South State School",
    "suburb": "SOUTH KOLAN",
    "state": "QLD",
    "postcode": "4670",
    "sector": "Government",
    "type": "Primary",
    "latitude": -24.9341,
    "longitude": 152.1761
  },
  {
    "name": "Northgate State School",
    "suburb": "NUNDAH",
    "state": "QLD",
    "postcode": "4012",
    "sector": "Government",
    "type": "Primary",
    "latitude": -27.398492,
    "longitude": 153.070915
  },
  {
    "name": "Mount Cotton State School",
    "suburb": "MOUNT COTTON",
    "state": "QLD",
    "postcode": "4165",
    "sector": "Government",
    "type": "Primary",
    "latitude": -27.6218,
    "longitude": 153.2356
  },
  {
    "name": "Walloon State School",
    "suburb": "WALLOON",
    "state": "QLD",
    "postcode": "4306",
    "sector": "Government",
    "type": "Primary",
    "latitude": -27.6057,
    "longitude": 152.6632
  },
  {
    "name": "Payne Road State School",
    "suburb": "THE GAP",
    "state": "QLD",
    "postcode": "4061",
    "sector": "Government",
    "type": "Primary",
    "latitude": -27.449371,
    "longitude": 152.951404
  },
  {
    "name": "The Willows State School",
    "suburb": "KIRWAN",
    "state": "QLD",
    "postcode": "4817",
    "sector": "Government",
    "type": "Primary",
    "latitude": -19.3051,
    "longitude": 146.7225
  },
  {
    "name": "Cunnamulla P-12 State School",
    "suburb": "CUNNAMULLA",
    "state": "QLD",
    "postcode": "4490",
    "sector": "Government",
    "type": "Combined",
    "latitude": -28.071361,
    "longitude": 145.679173
  },
  {
    "name": "Mornington Island State School",
    "suburb": "WELLESLEY ISLANDS",
    "state": "QLD",
    "postcode": "4892",
    "sector": "Government",
    "type": "Combined",
    "latitude": -16.666371,
    "longitude": 139.183349
  },
  {
    "name": "Windera State School",
    "suburb": "WINDERA",
    "state": "QLD",
    "postcode": "4605",
    "sector": "Government",
    "type": "Primary",
    "latitude": -26.053304,
    "longitude": 151.82931
  },
  {
    "name": "Crow's Nest State School",
    "suburb": "CROWS NEST",
    "state": "QLD",
    "postcode": "4355",
    "sector": "Government",
    "type": "Combined",
    "latitude": -27.2648,
    "longitude": 152.0522
  },
  {
    "name": "Minden State School",
    "suburb": "MINDEN",
    "state": "QLD",
    "postcode": "4311",
    "sector": "Government",
    "type": "Primary",
    "latitude": -27.5548,
    "longitude": 152.5442
  },
  {
    "name": "Ascot State School",
    "suburb": "ASCOT",
    "state": "QLD",
    "postcode": "4007",
    "sector": "Government",
    "type": "Primary",
    "latitude": -27.432947,
    "longitude": 153.056093
  },
  {
    "name": "Gowrie State School",
    "suburb": "GOWRIE JUNCTION",
    "state": "QLD",
    "postcode": "4352",
    "sector": "Government",
    "type": "Primary",
    "latitude": -27.491476,
    "longitude": 151.891923
  },
  {
    "name": "Gin Gin State School",
    "suburb": "GIN GIN",
    "state": "QLD",
    "postcode": "4671",
    "sector": "Government",
    "type": "Primary",
    "latitude": -24.992419,
    "longitude": 151.954785
  },
  {
    "name": "Blackall State School",
    "suburb": "BLACKALL",
    "state": "QLD",
    "postcode": "4472",
    "sector": "Government",
    "type": "Combined",
    "latitude": -24.425596,
    "longitude": 145.470046
  },
  {
    "name": "Mount Larcom State School",
    "suburb": "MOUNT LARCOM",
    "state": "QLD",
    "postcode": "4695",
    "sector": "Government",
    "type": "Combined",
    "latitude": -23.8071,
    "longitude": 150.9746
  },
  {
    "name": "Edens Landing State School",
    "suburb": "EDENS LANDING",
    "state": "QLD",
    "postcode": "4207",
    "sector": "Government",
    "type": "Primary",
    "latitude": -27.7053,
    "longitude": 153.1699
  },
  {
    "name": "Townsville South State School",
    "suburb": "SOUTH TOWNSVILLE",
    "state": "QLD",
    "postcode": "4810",
    "sector": "Government",
    "type": "Primary",
    "latitude": -19.263025,
    "longitude": 146.826783
  },
  {
    "name": "Muttaburra State School",
    "suburb": "MUTTABURRA",
    "state": "QLD",
    "postcode": "4732",
    "sector": "Government",
    "type": "Primary",
    "latitude": -22.595,
    "longitude": 144.5437
  },
  {
    "name": "Heatley State School",
    "suburb": "HEATLEY",
    "state": "QLD",
    "postcode": "4814",
    "sector": "Government",
    "type": "Primary",
    "latitude": -19.2938,
    "longitude": 146.7492
  },
  {
    "name": "Mooloolah State School",
    "suburb": "MOOLOOLAH VALLEY",
    "state": "QLD",
    "postcode": "4553",
    "sector": "Government",
    "type": "Primary",
    "latitude": -26.76909,
    "longitude": 152.957999
  },
  {
    "name": "Eton State School",
    "suburb": "ETON",
    "state": "QLD",
    "postcode": "4741",
    "sector": "Government",
    "type": "Primary",
    "latitude": -21.264501,
    "longitude": 148.976348
  },
  {
    "name": "Brookstead State School",
    "suburb": "BROOKSTEAD",
    "state": "QLD",
    "postcode": "4364",
    "sector": "Government",
    "type": "Primary",
    "latitude": -27.757589,
    "longitude": 151.45065
  },
  {
    "name": "Aramac State School",
    "suburb": "ARAMAC",
    "state": "QLD",
    "postcode": "4726",
    "sector": "Government",
    "type": "Combined",
    "latitude": -22.974584,
    "longitude": 145.242949
  },
  {
    "name": "Glenella State School",
    "suburb": "GLENELLA",
    "state": "QLD",
    "postcode": "4740",
    "sector": "Government",
    "type": "Primary",
    "latitude": -21.1215,
    "longitude": 149.1494
  },
  {
    "name": "Blenheim State School",
    "suburb": "BLENHEIM",
    "state": "QLD",
    "postcode": "4341",
    "sector": "Government",
    "type": "Primary",
    "latitude": -27.650275,
    "longitude": 152.331972
  },
  {
    "name": "Back Plains State School",
    "suburb": "BACK PLAINS",
    "state": "QLD",
    "postcode": "4361",
    "sector": "Government",
    "type": "Primary",
    "latitude": -27.8926,
    "longitude": 151.7842
  },
  {
    "name": "Dalveen State School",
    "suburb": "DALVEEN",
    "state": "QLD",
    "postcode": "4374",
    "sector": "Government",
    "type": "Primary",
    "latitude": -28.490157,
    "longitude": 151.973061
  },
  {
    "name": "Burnett Heads State School",
    "suburb": "BURNETT HEADS",
    "state": "QLD",
    "postcode": "4670",
    "sector": "Government",
    "type": "Primary",
    "latitude": -24.771497,
    "longitude": 152.414774
  },
  {
    "name": "Marburg State School",
    "suburb": "MARBURG",
    "state": "QLD",
    "postcode": "4346",
    "sector": "Government",
    "type": "Primary",
    "latitude": -27.56241,
    "longitude": 152.593709
  },
  {
    "name": "Macknade State School",
    "suburb": "MACKNADE",
    "state": "QLD",
    "postcode": "4850",
    "sector": "Government",
    "type": "Primary",
    "latitude": -18.5767,
    "longitude": 146.2519
  },
  {
    "name": "Lawnton State School",
    "suburb": "LAWNTON",
    "state": "QLD",
    "postcode": "4501",
    "sector": "Government",
    "type": "Primary",
    "latitude": -27.281618,
    "longitude": 152.974965
  },
  {
    "name": "Doomadgee State School",
    "suburb": "DOOMADGEE",
    "state": "QLD",
    "postcode": "4830",
    "sector": "Government",
    "type": "Combined",
    "latitude": -17.9421,
    "longitude": 138.8278
  },
  {
    "name": "Oakleigh State School",
    "suburb": "ASHGROVE",
    "state": "QLD",
    "postcode": "4060",
    "sector": "Government",
    "type": "Primary",
    "latitude": -27.4365,
    "longitude": 152.9859
  },
  {
    "name": "Boonah State School",
    "suburb": "BOONAH",
    "state": "QLD",
    "postcode": "4310",
    "sector": "Government",
    "type": "Primary",
    "latitude": -27.9978,
    "longitude": 152.6812
  },
  {
    "name": "Greenvale State School",
    "suburb": "GREENVALE",
    "state": "QLD",
    "postcode": "4816",
    "sector": "Government",
    "type": "Primary",
    "latitude": -18.999076,
    "longitude": 144.980704
  },
  {
    "name": "Ormeau State School",
    "suburb": "PIMPAMA",
    "state": "QLD",
    "postcode": "4209",
    "sector": "Government",
    "type": "Primary",
    "latitude": -27.8,
    "longitude": 153.2767
  },
  {
    "name": "Glenview State School",
    "suburb": "GLENVIEW",
    "state": "QLD",
    "postcode": "4553",
    "sector": "Government",
    "type": "Primary",
    "latitude": -26.765568,
    "longitude": 153.013785
  },
  {
    "name": "Bray Park State School",
    "suburb": "BRAY PARK",
    "state": "QLD",
    "postcode": "4500",
    "sector": "Government",
    "type": "Primary",
    "latitude": -27.293318,
    "longitude": 152.975039
  },
  {
    "name": "Miles State School",
    "suburb": "MILES",
    "state": "QLD",
    "postcode": "4415",
    "sector": "Government",
    "type": "Primary",
    "latitude": -26.6568,
    "longitude": 150.1856
  },
  {
    "name": "Duaringa State School",
    "suburb": "DUARINGA",
    "state": "QLD",
    "postcode": "4712",
    "sector": "Government",
    "type": "Primary",
    "latitude": -23.716044,
    "longitude": 149.667938
  },
  {
    "name": "Kalbar State School",
    "suburb": "KALBAR",
    "state": "QLD",
    "postcode": "4309",
    "sector": "Government",
    "type": "Primary",
    "latitude": -27.9422,
    "longitude": 152.6239
  },
  {
    "name": "Bluff State School",
    "suburb": "BLUFF",
    "state": "QLD",
    "postcode": "4702",
    "sector": "Government",
    "type": "Primary",
    "latitude": -23.5822,
    "longitude": 149.0689
  },
  {
    "name": "Howard State School",
    "suburb": "HOWARD",
    "state": "QLD",
    "postcode": "4659",
    "sector": "Government",
    "type": "Primary",
    "latitude": -25.3219,
    "longitude": 152.5578
  },
  {
    "name": "Landsborough State School",
    "suburb": "LANDSBOROUGH",
    "state": "QLD",
    "postcode": "4550",
    "sector": "Government",
    "type": "Primary",
    "latitude": -26.8041,
    "longitude": 152.9646
  },
  {
    "name": "Woongarra State School",
    "suburb": "WOONGARRA",
    "state": "QLD",
    "postcode": "4670",
    "sector": "Government",
    "type": "Primary",
    "latitude": -24.878694,
    "longitude": 152.405796
  },
  {
    "name": "Camira State School",
    "suburb": "CAMIRA",
    "state": "QLD",
    "postcode": "4300",
    "sector": "Government",
    "type": "Primary",
    "latitude": -27.621789,
    "longitude": 152.915277
  },
  {
    "name": "Walkerston State School",
    "suburb": "WALKERSTON",
    "state": "QLD",
    "postcode": "4751",
    "sector": "Government",
    "type": "Primary",
    "latitude": -21.159064,
    "longitude": 149.064979
  },
  {
    "name": "Emerald State School",
    "suburb": "EMERALD",
    "state": "QLD",
    "postcode": "4720",
    "sector": "Government",
    "type": "Primary",
    "latitude": -23.523568,
    "longitude": 148.160998
  },
  {
    "name": "Currajong State School",
    "suburb": "GULLIVER",
    "state": "QLD",
    "postcode": "4812",
    "sector": "Government",
    "type": "Primary",
    "latitude": -19.2802,
    "longitude": 146.7742
  },
  {
    "name": "Mabel Park State School",
    "suburb": "SLACKS CREEK",
    "state": "QLD",
    "postcode": "4127",
    "sector": "Government",
    "type": "Primary",
    "latitude": -27.6431,
    "longitude": 153.1265
  },
  {
    "name": "Augathella State School",
    "suburb": "AUGATHELLA",
    "state": "QLD",
    "postcode": "4477",
    "sector": "Government",
    "type": "Primary",
    "latitude": -25.7971,
    "longitude": 146.5834
  },
  {
    "name": "Springwood Road State School",
    "suburb": "ROCHEDALE SOUTH",
    "state": "QLD",
    "postcode": "4123",
    "sector": "Government",
    "type": "Primary",
    "latitude": -27.607697,
    "longitude": 153.129133
  },
  {
    "name": "Harris Fields State School",
    "suburb": "WOODRIDGE",
    "state": "QLD",
    "postcode": "4114",
    "sector": "Government",
    "type": "Primary",
    "latitude": -27.630199,
    "longitude": 153.115547
  },
  {
    "name": "Normanton State School",
    "suburb": "NORMANTON",
    "state": "QLD",
    "postcode": "4890",
    "sector": "Government",
    "type": "Combined",
    "latitude": -17.6721,
    "longitude": 141.079
  },
  {
    "name": "Two Mile State School",
    "suburb": "Two Mile",
    "state": "QLD",
    "postcode": "4570",
    "sector": "Government",
    "type": "Primary",
    "latitude": -26.17029,
    "longitude": 152.642792
  },
  {
    "name": "Nambour State College - Junior School",
    "suburb": "NAMBOUR",
    "state": "QLD",
    "postcode": "4560",
    "sector": "Government",
    "type": "Primary",
    "latitude": -26.62143,
    "longitude": 152.964562
  },
  {
    "name": "Ipswich West State School",
    "suburb": "WEST IPSWICH",
    "state": "QLD",
    "postcode": "4305",
    "sector": "Government",
    "type": "Primary",
    "latitude": -27.621092,
    "longitude": 152.750822
  },
  {
    "name": "Southport State School",
    "suburb": "SOUTHPORT",
    "state": "QLD",
    "postcode": "4215",
    "sector": "Government",
    "type": "Primary",
    "latitude": -27.9708,
    "longitude": 153.4008
  },
  {
    "name": "Caboolture State School",
    "suburb": "CABOOLTURE",
    "state": "QLD",
    "postcode": "4510",
    "sector": "Government",
    "type": "Primary",
    "latitude": -27.082934,
    "longitude": 152.948542
  },
  {
    "name": "Woodford State School",
    "suburb": "WOODFORD",
    "state": "QLD",
    "postcode": "4514",
    "sector": "Government",
    "type": "Combined",
    "latitude": -26.961481,
    "longitude": 152.78065
  },
  {
    "name": "Kedron State School",
    "suburb": "KEDRON",
    "state": "QLD",
    "postcode": "4031",
    "sector": "Government",
    "type": "Primary",
    "latitude": -27.406339,
    "longitude": 153.034884
  },
  {
    "name": "Yuleba State School",
    "suburb": "YULEBA",
    "state": "QLD",
    "postcode": "4427",
    "sector": "Government",
    "type": "Primary",
    "latitude": -26.614401,
    "longitude": 149.381565
  },
  {
    "name": "Pittsworth State School",
    "suburb": "PITTSWORTH",
    "state": "QLD",
    "postcode": "4356",
    "sector": "Government",
    "type": "Primary",
    "latitude": -27.718463,
    "longitude": 151.6342
  },
  {
    "name": "Mount Samson State School",
    "suburb": "MOUNT SAMSON",
    "state": "QLD",
    "postcode": "4520",
    "sector": "Government",
    "type": "Primary",
    "latitude": -27.2943,
    "longitude": 152.8513
  },
  {
    "name": "McDowall State School",
    "suburb": "MCDOWALL",
    "state": "QLD",
    "postcode": "4053",
    "sector": "Government",
    "type": "Primary",
    "latitude": -27.388,
    "longitude": 152.99
  },
  {
    "name": "Bwgcolman Community School",
    "suburb": "PALM ISLAND",
    "state": "QLD",
    "postcode": "4816",
    "sector": "Government",
    "type": "Combined",
    "latitude": -18.7362,
    "longitude": 146.5782
  },
  {
    "name": "Mount Alford State School",
    "suburb": "MOUNT ALFORD",
    "state": "QLD",
    "postcode": "4310",
    "sector": "Government",
    "type": "Primary",
    "latitude": -28.068481,
    "longitude": 152.594504
  },
  {
    "name": "Ma Ma Creek State School",
    "suburb": "MA MA CREEK",
    "state": "QLD",
    "postcode": "4347",
    "sector": "Government",
    "type": "Primary",
    "latitude": -27.629112,
    "longitude": 152.190092
  },
  {
    "name": "Warra State School",
    "suburb": "WARRA",
    "state": "QLD",
    "postcode": "4411",
    "sector": "Government",
    "type": "Primary",
    "latitude": -26.93034,
    "longitude": 150.917526
  },
  {
    "name": "Bauhinia State School",
    "suburb": "BAUHINIA",
    "state": "QLD",
    "postcode": "4718",
    "sector": "Government",
    "type": "Primary",
    "latitude": -24.5667,
    "longitude": 149.2961
  },
  {
    "name": "Hughenden State School",
    "suburb": "HUGHENDEN",
    "state": "QLD",
    "postcode": "4821",
    "sector": "Government",
    "type": "Combined",
    "latitude": -20.8459,
    "longitude": 144.1965
  },
  {
    "name": "Hatton Vale State School",
    "suburb": "HATTON VALE",
    "state": "QLD",
    "postcode": "4341",
    "sector": "Government",
    "type": "Primary",
    "latitude": -27.5434,
    "longitude": 152.471
  },
  {
    "name": "Denison State School",
    "suburb": "EMERALD",
    "state": "QLD",
    "postcode": "4720",
    "sector": "Government",
    "type": "Primary",
    "latitude": -23.532222,
    "longitude": 148.151294
  },
  {
    "name": "Benaraby State School",
    "suburb": "BENARABY",
    "state": "QLD",
    "postcode": "4680",
    "sector": "Government",
    "type": "Primary",
    "latitude": -24.0038,
    "longitude": 151.3238
  },
  {
    "name": "Wilsonton State School",
    "suburb": "WILSONTON",
    "state": "QLD",
    "postcode": "4350",
    "sector": "Government",
    "type": "Primary",
    "latitude": -27.542725,
    "longitude": 151.922169
  },
  {
    "name": "Weir State School",
    "suburb": "THURINGOWA CENTRAL",
    "state": "QLD",
    "postcode": "4817",
    "sector": "Government",
    "type": "Primary",
    "latitude": -19.315336,
    "longitude": 146.734481
  },
  {
    "name": "Blackwater State School",
    "suburb": "BLACKWATER",
    "state": "QLD",
    "postcode": "4717",
    "sector": "Government",
    "type": "Primary",
    "latitude": -23.583623,
    "longitude": 148.87771
  },
  {
    "name": "Crawford State School",
    "suburb": "CRAWFORD",
    "state": "QLD",
    "postcode": "4610",
    "sector": "Government",
    "type": "Primary",
    "latitude": -26.497537,
    "longitude": 151.822331
  },
  {
    "name": "Sharon State School",
    "suburb": "SHARON",
    "state": "QLD",
    "postcode": "4670",
    "sector": "Government",
    "type": "Primary",
    "latitude": -24.8725,
    "longitude": 152.2634
  },
  {
    "name": "Jindalee State School",
    "suburb": "JINDALEE",
    "state": "QLD",
    "postcode": "4074",
    "sector": "Government",
    "type": "Primary",
    "latitude": -27.530029,
    "longitude": 152.934789
  },
  {
    "name": "Valkyrie State School",
    "suburb": "VALKYRIE",
    "state": "QLD",
    "postcode": "4742",
    "sector": "Government",
    "type": "Primary",
    "latitude": -22.0595,
    "longitude": 148.5795
  },
  {
    "name": "Alexandra Hills State School",
    "suburb": "ALEXANDRA HILLS",
    "state": "QLD",
    "postcode": "4161",
    "sector": "Government",
    "type": "Primary",
    "latitude": -27.518299,
    "longitude": 153.220994
  },
  {
    "name": "Gooburrum State School",
    "suburb": "GOOBURRUM",
    "state": "QLD",
    "postcode": "4670",
    "sector": "Government",
    "type": "Primary",
    "latitude": -24.822925,
    "longitude": 152.305818
  },
  {
    "name": "Thargomindah State School",
    "suburb": "THARGOMINDAH",
    "state": "QLD",
    "postcode": "4492",
    "sector": "Government",
    "type": "Primary",
    "latitude": -27.995583,
    "longitude": 143.827018
  },
  {
    "name": "Capella State School",
    "suburb": "CAPELLA",
    "state": "QLD",
    "postcode": "4723",
    "sector": "Government",
    "type": "Primary",
    "latitude": -23.082812,
    "longitude": 148.024909
  },
  {
    "name": "Cloncurry State School P-12",
    "suburb": "CLONCURRY",
    "state": "QLD",
    "postcode": "4824",
    "sector": "Government",
    "type": "Combined",
    "latitude": -20.704017,
    "longitude": 140.505858
  },
  {
    "name": "Middle Ridge State School",
    "suburb": "MIDDLE RIDGE",
    "state": "QLD",
    "postcode": "4350",
    "sector": "Government",
    "type": "Primary",
    "latitude": -27.601477,
    "longitude": 151.956509
  },
  {
    "name": "Wondall Heights State School",
    "suburb": "MANLY WEST",
    "state": "QLD",
    "postcode": "4179",
    "sector": "Government",
    "type": "Primary",
    "latitude": -27.464269,
    "longitude": 153.159283
  },
  {
    "name": "Monkland State School",
    "suburb": "MONKLAND",
    "state": "QLD",
    "postcode": "4570",
    "sector": "Government",
    "type": "Primary",
    "latitude": -26.213728,
    "longitude": 152.686032
  },
  {
    "name": "Pialba State School",
    "suburb": "PIALBA",
    "state": "QLD",
    "postcode": "4655",
    "sector": "Government",
    "type": "Primary",
    "latitude": -25.279518,
    "longitude": 152.833215
  },
  {
    "name": "Tresswell State School",
    "suburb": "NANDOWRIE",
    "state": "QLD",
    "postcode": "4722",
    "sector": "Government",
    "type": "Primary",
    "latitude": -24.248,
    "longitude": 147.6066
  },
  {
    "name": "Pilton State School",
    "suburb": "PILTON",
    "state": "QLD",
    "postcode": "4361",
    "sector": "Government",
    "type": "Primary",
    "latitude": -27.868137,
    "longitude": 152.049612
  },
  {
    "name": "Bollon State School",
    "suburb": "BOLLON",
    "state": "QLD",
    "postcode": "4488",
    "sector": "Government",
    "type": "Primary",
    "latitude": -28.031552,
    "longitude": 147.475969
  },
  {
    "name": "Alloway State School",
    "suburb": "ALLOWAY",
    "state": "QLD",
    "postcode": "4670",
    "sector": "Government",
    "type": "Primary",
    "latitude": -24.9521,
    "longitude": 152.3783
  },
  {
    "name": "Mundingburra State School",
    "suburb": "MUNDINGBURRA",
    "state": "QLD",
    "postcode": "4812",
    "sector": "Government",
    "type": "Primary",
    "latitude": -19.294227,
    "longitude": 146.789553
  },
  {
    "name": "Texas P-10 State School",
    "suburb": "TEXAS",
    "state": "QLD",
    "postcode": "4385",
    "sector": "Government",
    "type": "Combined",
    "latitude": -28.850504,
    "longitude": 151.174371
  },
  {
    "name": "Coningsby State School",
    "suburb": "FARLEIGH",
    "state": "QLD",
    "postcode": "4741",
    "sector": "Government",
    "type": "Primary",
    "latitude": -21.092238,
    "longitude": 149.068803
  },
  {
    "name": "Annandale State School",
    "suburb": "ANNANDALE",
    "state": "QLD",
    "postcode": "4814",
    "sector": "Government",
    "type": "Primary",
    "latitude": -19.315486,
    "longitude": 146.778356
  },
  {
    "name": "Yeppoon State School",
    "suburb": "YEPPOON",
    "state": "QLD",
    "postcode": "4703",
    "sector": "Government",
    "type": "Primary",
    "latitude": -23.125095,
    "longitude": 150.73754
  },
  {
    "name": "Labrador State School",
    "suburb": "LABRADOR",
    "state": "QLD",
    "postcode": "4215",
    "sector": "Government",
    "type": "Primary",
    "latitude": -27.942912,
    "longitude": 153.402513
  },
  {
    "name": "Narangba Valley State High School",
    "suburb": "NARANGBA",
    "state": "QLD",
    "postcode": "4504",
    "sector": "Government",
    "type": "Secondary",
    "latitude": -27.173543,
    "longitude": 152.942076
  },
  {
    "name": "Norville State School",
    "suburb": "NORVILLE",
    "state": "QLD",
    "postcode": "4670",
    "sector": "Government",
    "type": "Primary",
    "latitude": -24.886842,
    "longitude": 152.336254
  },
  {
    "name": "Karumba State School",
    "suburb": "KARUMBA",
    "state": "QLD",
    "postcode": "4891",
    "sector": "Government",
    "type": "Primary",
    "latitude": -17.4829,
    "longitude": 140.8403
  },
  {
    "name": "Ingham State School",
    "suburb": "INGHAM",
    "state": "QLD",
    "postcode": "4850",
    "sector": "Government",
    "type": "Primary",
    "latitude": -18.652296,
    "longitude": 146.161693
  },
  {
    "name": "Ayr State School",
    "suburb": "AYR",
    "state": "QLD",
    "postcode": "4807",
    "sector": "Government",
    "type": "Primary",
    "latitude": -19.5791,
    "longitude": 147.4006
  },
  {
    "name": "Bentley Park College",
    "suburb": "BENTLEY PARK",
    "state": "QLD",
    "postcode": "4869",
    "sector": "Government",
    "type": "Combined",
    "latitude": -17.0094,
    "longitude": 145.7401
  },
  {
    "name": "Rocklea State School",
    "suburb": "ROCKLEA",
    "state": "QLD",
    "postcode": "4106",
    "sector": "Government",
    "type": "Primary",
    "latitude": -27.546791,
    "longitude": 153.011792
  },
  {
    "name": "Ithaca Creek State School",
    "suburb": "BARDON",
    "state": "QLD",
    "postcode": "4065",
    "sector": "Government",
    "type": "Primary",
    "latitude": -27.45143708,
    "longitude": 152.991578
  },
  {
    "name": "Woodcrest State College",
    "suburb": "SPRINGFIELD",
    "state": "QLD",
    "postcode": "4300",
    "sector": "Government",
    "type": "Combined",
    "latitude": -27.6573,
    "longitude": 152.9185
  },
  {
    "name": "Pormpuraaw State School",
    "suburb": "PORMPURAAW",
    "state": "QLD",
    "postcode": "4892",
    "sector": "Government",
    "type": "Primary",
    "latitude": -14.89858,
    "longitude": 141.621434
  },
  {
    "name": "Wallangarra State School",
    "suburb": "WALLANGARRA",
    "state": "QLD",
    "postcode": "4383",
    "sector": "Government",
    "type": "Primary",
    "latitude": -28.9185,
    "longitude": 151.9313
  },
  {
    "name": "Kowanyama State School",
    "suburb": "KOWANYAMA",
    "state": "QLD",
    "postcode": "4892",
    "sector": "Government",
    "type": "Combined",
    "latitude": -15.471714,
    "longitude": 141.744587
  },
  {
    "name": "Windorah State School",
    "suburb": "WINDORAH",
    "state": "QLD",
    "postcode": "4481",
    "sector": "Government",
    "type": "Primary",
    "latitude": -25.420451,
    "longitude": 142.654053
  },
  {
    "name": "Talara Primary College",
    "suburb": "CURRIMUNDI",
    "state": "QLD",
    "postcode": "4551",
    "sector": "Government",
    "type": "Primary",
    "latitude": -26.772421,
    "longitude": 153.11766
  },
  {
    "name": "Tagai State College - Thursday Island Primary Campus",
    "suburb": "THURSDAY ISLAND",
    "state": "QLD",
    "postcode": "4875",
    "sector": "Government",
    "type": "Primary",
    "latitude": -10.58,
    "longitude": 142.2222
  },
  {
    "name": "Mount Sylvia State School",
    "suburb": "MOUNT SYLVIA",
    "state": "QLD",
    "postcode": "4343",
    "sector": "Government",
    "type": "Primary",
    "latitude": -27.72274,
    "longitude": 152.223681
  },
  {
    "name": "Mary Valley State College",
    "suburb": "IMBIL",
    "state": "QLD",
    "postcode": "4570",
    "sector": "Government",
    "type": "Combined",
    "latitude": -26.4618,
    "longitude": 152.6792
  },
  {
    "name": "Brandon State School",
    "suburb": "BRANDON",
    "state": "QLD",
    "postcode": "4808",
    "sector": "Government",
    "type": "Primary",
    "latitude": -19.553727,
    "longitude": 147.349195
  },
  {
    "name": "Pentland State School",
    "suburb": "PENTLAND",
    "state": "QLD",
    "postcode": "4816",
    "sector": "Government",
    "type": "Primary",
    "latitude": -20.522942,
    "longitude": 145.397987
  },
  {
    "name": "Wilsonton State High School",
    "suburb": "WILSONTON HEIGHTS",
    "state": "QLD",
    "postcode": "4350",
    "sector": "Government",
    "type": "Secondary",
    "latitude": -27.5376,
    "longitude": 151.9244
  },
  {
    "name": "North Arm State School",
    "suburb": "NORTH ARM",
    "state": "QLD",
    "postcode": "4561",
    "sector": "Government",
    "type": "Primary",
    "latitude": -26.523505,
    "longitude": 152.96616
  },
  {
    "name": "Homebush State School",
    "suburb": "HOMEBUSH",
    "state": "QLD",
    "postcode": "4740",
    "sector": "Government",
    "type": "Primary",
    "latitude": -21.2759,
    "longitude": 149.0504
  },
  {
    "name": "Flagstone State School",
    "suburb": "JIMBOOMBA",
    "state": "QLD",
    "postcode": "4280",
    "sector": "Government",
    "type": "Primary",
    "latitude": -27.807296,
    "longitude": 152.957477
  },
  {
    "name": "Runcorn Heights State School",
    "suburb": "RUNCORN",
    "state": "QLD",
    "postcode": "4113",
    "sector": "Government",
    "type": "Primary",
    "latitude": -27.6045,
    "longitude": 153.0697
  },
  {
    "name": "Emu Park State School",
    "suburb": "EMU PARK",
    "state": "QLD",
    "postcode": "4710",
    "sector": "Government",
    "type": "Primary",
    "latitude": -23.25921,
    "longitude": 150.82102
  },
  {
    "name": "Anakie State School",
    "suburb": "THE GEMFIELDS",
    "state": "QLD",
    "postcode": "4702",
    "sector": "Government",
    "type": "Primary",
    "latitude": -23.554,
    "longitude": 147.7459
  },
  {
    "name": "Scottville State School",
    "suburb": "SCOTTVILLE",
    "state": "QLD",
    "postcode": "4804",
    "sector": "Government",
    "type": "Primary",
    "latitude": -20.574566,
    "longitude": 147.820075
  },
  {
    "name": "Woombye State School",
    "suburb": "WOOMBYE",
    "state": "QLD",
    "postcode": "4559",
    "sector": "Government",
    "type": "Primary",
    "latitude": -26.6678,
    "longitude": 152.9738
  },
  {
    "name": "Winton State School",
    "suburb": "WINTON",
    "state": "QLD",
    "postcode": "4735",
    "sector": "Government",
    "type": "Combined",
    "latitude": -22.38518036,
    "longitude": 143.03882612
  },
  {
    "name": "Nashville State School",
    "suburb": "BRIGHTON",
    "state": "QLD",
    "postcode": "4017",
    "sector": "Government",
    "type": "Primary",
    "latitude": -27.30728,
    "longitude": 153.050112
  },
  {
    "name": "Benowa State School",
    "suburb": "BENOWA",
    "state": "QLD",
    "postcode": "4217",
    "sector": "Government",
    "type": "Primary",
    "latitude": -28.0077,
    "longitude": 153.3911
  },
  {
    "name": "Gympie East State School",
    "suburb": "GREENS CREEK",
    "state": "QLD",
    "postcode": "4570",
    "sector": "Government",
    "type": "Primary",
    "latitude": -26.179663,
    "longitude": 152.732925
  },
  {
    "name": "Cameron Downs State School",
    "suburb": "TANGORIN",
    "state": "QLD",
    "postcode": "4821",
    "sector": "Government",
    "type": "Primary",
    "latitude": -21.3746,
    "longitude": 144.2788
  },
  {
    "name": "Maryborough West State School",
    "suburb": "MARYBOROUGH",
    "state": "QLD",
    "postcode": "4650",
    "sector": "Government",
    "type": "Primary",
    "latitude": -25.5237,
    "longitude": 152.6946
  },
  {
    "name": "Stafford State School",
    "suburb": "STAFFORD",
    "state": "QLD",
    "postcode": "4053",
    "sector": "Government",
    "type": "Primary",
    "latitude": -27.4107,
    "longitude": 153.0175
  },
  {
    "name": "Prairie State School",
    "suburb": "PRAIRIE",
    "state": "QLD",
    "postcode": "4816",
    "sector": "Government",
    "type": "Primary",
    "latitude": -20.8708,
    "longitude": 144.6053
  },
  {
    "name": "Flagstone Creek State School",
    "suburb": "FLAGSTONE CREEK",
    "state": "QLD",
    "postcode": "4344",
    "sector": "Government",
    "type": "Primary",
    "latitude": -27.615386,
    "longitude": 152.114763
  },
  {
    "name": "Yandina State School",
    "suburb": "YANDINA",
    "state": "QLD",
    "postcode": "4561",
    "sector": "Government",
    "type": "Primary",
    "latitude": -26.552307,
    "longitude": 152.958226
  },
  {
    "name": "Teelba State School",
    "suburb": "TEELBA",
    "state": "QLD",
    "postcode": "4423",
    "sector": "Government",
    "type": "Primary",
    "latitude": -27.5345,
    "longitude": 149.3939
  },
  {
    "name": "Mount Whitestone State School",
    "suburb": "MOUNT WHITESTONE",
    "state": "QLD",
    "postcode": "4347",
    "sector": "Government",
    "type": "Primary",
    "latitude": -27.6651,
    "longitude": 152.1602
  },
  {
    "name": "Bundaberg East State School",
    "suburb": "BUNDABERG EAST",
    "state": "QLD",
    "postcode": "4670",
    "sector": "Government",
    "type": "Primary",
    "latitude": -24.8623,
    "longitude": 152.3726
  },
  {
    "name": "Townsville West State School",
    "suburb": "WEST END",
    "state": "QLD",
    "postcode": "4810",
    "sector": "Government",
    "type": "Primary",
    "latitude": -19.2672,
    "longitude": 146.8042
  },
  {
    "name": "Toowoomba East State School",
    "suburb": "EAST TOOWOOMBA",
    "state": "QLD",
    "postcode": "4350",
    "sector": "Government",
    "type": "Primary",
    "latitude": -27.560323,
    "longitude": 151.966105
  },
  {
    "name": "Mackay West State School",
    "suburb": "WEST MACKAY",
    "state": "QLD",
    "postcode": "4740",
    "sector": "Government",
    "type": "Primary",
    "latitude": -21.1526,
    "longitude": 149.1613
  },
  {
    "name": "Lockhart State School",
    "suburb": "LOCKHART RIVER",
    "state": "QLD",
    "postcode": "4892",
    "sector": "Government",
    "type": "Combined",
    "latitude": -12.785143,
    "longitude": 143.344184
  },
  {
    "name": "Dutton Park State School",
    "suburb": "DUTTON PARK",
    "state": "QLD",
    "postcode": "4102",
    "sector": "Government",
    "type": "Primary",
    "latitude": -27.494,
    "longitude": 153.0279
  },
  {
    "name": "Mungallala State School",
    "suburb": "MUNGALLALA",
    "state": "QLD",
    "postcode": "4467",
    "sector": "Government",
    "type": "Primary",
    "latitude": -26.444683,
    "longitude": 147.544718
  },
  {
    "name": "Belgian Gardens State School",
    "suburb": "BELGIAN GARDENS",
    "state": "QLD",
    "postcode": "4810",
    "sector": "Government",
    "type": "Primary",
    "latitude": -19.250927,
    "longitude": 146.793088
  },
  {
    "name": "Moonie State School",
    "suburb": "MOONIE",
    "state": "QLD",
    "postcode": "4406",
    "sector": "Government",
    "type": "Primary",
    "latitude": -27.71401,
    "longitude": 150.373348
  },
  {
    "name": "Ashwell State School",
    "suburb": "ASHWELL",
    "state": "QLD",
    "postcode": "4340",
    "sector": "Government",
    "type": "Primary",
    "latitude": -27.629107,
    "longitude": 152.557084
  },
  {
    "name": "Junction Park State School",
    "suburb": "ANNERLEY",
    "state": "QLD",
    "postcode": "4103",
    "sector": "Government",
    "type": "Primary",
    "latitude": -27.509771,
    "longitude": 153.035212
  },
  {
    "name": "Park Ridge State School",
    "suburb": "PARK RIDGE",
    "state": "QLD",
    "postcode": "4125",
    "sector": "Government",
    "type": "Primary",
    "latitude": -27.702067,
    "longitude": 153.039102
  },
  {
    "name": "Alpha State School",
    "suburb": "ALPHA",
    "state": "QLD",
    "postcode": "4724",
    "sector": "Government",
    "type": "Combined",
    "latitude": -23.6508,
    "longitude": 146.6423
  },
  {
    "name": "Marian State School",
    "suburb": "MARIAN",
    "state": "QLD",
    "postcode": "4753",
    "sector": "Government",
    "type": "Primary",
    "latitude": -21.145681,
    "longitude": 148.958678
  },
  {
    "name": "Irvinebank State School",
    "suburb": "IRVINEBANK",
    "state": "QLD",
    "postcode": "4887",
    "sector": "Government",
    "type": "Primary",
    "latitude": -17.4269,
    "longitude": 145.2041
  },
  {
    "name": "Darlington State School",
    "suburb": "DARLINGTON",
    "state": "QLD",
    "postcode": "4285",
    "sector": "Government",
    "type": "Primary",
    "latitude": -28.206,
    "longitude": 153.040057
  },
  {
    "name": "Banana State School",
    "suburb": "BANANA",
    "state": "QLD",
    "postcode": "4702",
    "sector": "Government",
    "type": "Primary",
    "latitude": -24.47,
    "longitude": 150.13
  },
  {
    "name": "Torbanlea State School",
    "suburb": "TORBANLEA",
    "state": "QLD",
    "postcode": "4662",
    "sector": "Government",
    "type": "Primary",
    "latitude": -25.348,
    "longitude": 152.5998
  },
  {
    "name": "Forsayth State School",
    "suburb": "FORSAYTH",
    "state": "QLD",
    "postcode": "4871",
    "sector": "Government",
    "type": "Primary",
    "latitude": -18.5897,
    "longitude": 143.6025
  },
  {
    "name": "Wyreema State School",
    "suburb": "WYREEMA",
    "state": "QLD",
    "postcode": "4352",
    "sector": "Government",
    "type": "Primary",
    "latitude": -27.658857,
    "longitude": 151.855129
  },
  {
    "name": "Morven State School",
    "suburb": "MORVEN",
    "state": "QLD",
    "postcode": "4468",
    "sector": "Government",
    "type": "Primary",
    "latitude": -26.415675,
    "longitude": 147.109578
  },
  {
    "name": "Mount Morgan Central State School",
    "suburb": "MOUNT MORGAN",
    "state": "QLD",
    "postcode": "4714",
    "sector": "Government",
    "type": "Primary",
    "latitude": -23.645833,
    "longitude": 150.388075
  },
  {
    "name": "Innisfail State School",
    "suburb": "INNISFAIL",
    "state": "QLD",
    "postcode": "4860",
    "sector": "Government",
    "type": "Primary",
    "latitude": -17.5184,
    "longitude": 146.028
  },
  {
    "name": "Hampden State School",
    "suburb": "HAMPDEN",
    "state": "QLD",
    "postcode": "4741",
    "sector": "Government",
    "type": "Primary",
    "latitude": -21.0602,
    "longitude": 148.9311
  },
  {
    "name": "Burketown State School",
    "suburb": "BURKETOWN",
    "state": "QLD",
    "postcode": "4830",
    "sector": "Government",
    "type": "Primary",
    "latitude": -17.738838,
    "longitude": 139.547604
  },
  {
    "name": "Barcaldine Prep-12 State School",
    "suburb": "BARCALDINE",
    "state": "QLD",
    "postcode": "4725",
    "sector": "Government",
    "type": "Combined",
    "latitude": -23.559048,
    "longitude": 145.294399
  },
  {
    "name": "Walkervale State School",
    "suburb": "WALKERVALE",
    "state": "QLD",
    "postcode": "4670",
    "sector": "Government",
    "type": "Primary",
    "latitude": -24.885223,
    "longitude": 152.360143
  },
  {
    "name": "Jandowae Prep-10 State School",
    "suburb": "JANDOWAE",
    "state": "QLD",
    "postcode": "4410",
    "sector": "Government",
    "type": "Combined",
    "latitude": -26.779943,
    "longitude": 151.112705
  },
  {
    "name": "Hambledon State School",
    "suburb": "EDMONTON",
    "state": "QLD",
    "postcode": "4869",
    "sector": "Government",
    "type": "Primary",
    "latitude": -17.021342,
    "longitude": 145.735793
  },
  {
    "name": "Bribie Island State School",
    "suburb": "BONGAREE",
    "state": "QLD",
    "postcode": "4507",
    "sector": "Government",
    "type": "Primary",
    "latitude": -27.08322938,
    "longitude": 153.16211521
  },
  {
    "name": "Hillview State School",
    "suburb": "HILLVIEW",
    "state": "QLD",
    "postcode": "4285",
    "sector": "Government",
    "type": "Primary",
    "latitude": -28.212115,
    "longitude": 153.004805
  },
  {
    "name": "Glen Aplin State School",
    "suburb": "GLEN APLIN",
    "state": "QLD",
    "postcode": "4381",
    "sector": "Government",
    "type": "Primary",
    "latitude": -28.738893,
    "longitude": 151.872823
  },
  {
    "name": "Eimeo Road State School",
    "suburb": "RURAL VIEW",
    "state": "QLD",
    "postcode": "4740",
    "sector": "Government",
    "type": "Primary",
    "latitude": -21.0594,
    "longitude": 149.1617
  },
  {
    "name": "Sarina State School",
    "suburb": "SARINA",
    "state": "QLD",
    "postcode": "4737",
    "sector": "Government",
    "type": "Primary",
    "latitude": -21.422182,
    "longitude": 149.217652
  },
  {
    "name": "Wulguru State School",
    "suburb": "WULGURU",
    "state": "QLD",
    "postcode": "4811",
    "sector": "Government",
    "type": "Primary",
    "latitude": -19.3246,
    "longitude": 146.8121
  },
  {
    "name": "Milton State School",
    "suburb": "MILTON",
    "state": "QLD",
    "postcode": "4064",
    "sector": "Government",
    "type": "Primary",
    "latitude": -27.467157,
    "longitude": 152.998882
  },
  {
    "name": "Gogango State School",
    "suburb": "GOGANGO",
    "state": "QLD",
    "postcode": "4702",
    "sector": "Government",
    "type": "Primary",
    "latitude": -23.6648,
    "longitude": 150.0444
  },
  {
    "name": "Oonoonba State School",
    "suburb": "IDALIA",
    "state": "QLD",
    "postcode": "4811",
    "sector": "Government",
    "type": "Primary",
    "latitude": -19.304468,
    "longitude": 146.812476
  },
  {
    "name": "Gympie West State School",
    "suburb": "GYMPIE",
    "state": "QLD",
    "postcode": "4570",
    "sector": "Government",
    "type": "Primary",
    "latitude": -26.17376,
    "longitude": 152.662167
  },
  {
    "name": "Canungra State School",
    "suburb": "CANUNGRA",
    "state": "QLD",
    "postcode": "4275",
    "sector": "Government",
    "type": "Primary",
    "latitude": -28.017066,
    "longitude": 153.162275
  },
  {
    "name": "Childers State School",
    "suburb": "CHILDERS",
    "state": "QLD",
    "postcode": "4660",
    "sector": "Government",
    "type": "Primary",
    "latitude": -25.2312,
    "longitude": 152.2803
  },
  {
    "name": "Beerwah State School",
    "suburb": "BEERWAH",
    "state": "QLD",
    "postcode": "4519",
    "sector": "Government",
    "type": "Primary",
    "latitude": -26.855853,
    "longitude": 152.93987
  },
  {
    "name": "Brassall State School",
    "suburb": "BRASSALL",
    "state": "QLD",
    "postcode": "4305",
    "sector": "Government",
    "type": "Primary",
    "latitude": -27.588666,
    "longitude": 152.747584
  },
  {
    "name": "Avondale State School",
    "suburb": "AVONDALE",
    "state": "QLD",
    "postcode": "4670",
    "sector": "Government",
    "type": "Primary",
    "latitude": -24.7358,
    "longitude": 152.1607
  },
  {
    "name": "Glenmore State School",
    "suburb": "KAWANA",
    "state": "QLD",
    "postcode": "4701",
    "sector": "Government",
    "type": "Primary",
    "latitude": -23.3373,
    "longitude": 150.5149
  },
  {
    "name": "Ipswich East State School",
    "suburb": "EAST IPSWICH",
    "state": "QLD",
    "postcode": "4305",
    "sector": "Government",
    "type": "Primary",
    "latitude": -27.607156,
    "longitude": 152.778169
  },
  {
    "name": "Richmond State School",
    "suburb": "RICHMOND",
    "state": "QLD",
    "postcode": "4822",
    "sector": "Government",
    "type": "Combined",
    "latitude": -20.7346,
    "longitude": 143.143
  },
  {
    "name": "Tin Can Bay State School",
    "suburb": "TIN CAN BAY",
    "state": "QLD",
    "postcode": "4580",
    "sector": "Government",
    "type": "Combined",
    "latitude": -25.925181,
    "longitude": 152.994883
  },
  {
    "name": "Theebine State School",
    "suburb": "THEEBINE",
    "state": "QLD",
    "postcode": "4570",
    "sector": "Government",
    "type": "Primary",
    "latitude": -25.952449,
    "longitude": 152.54075
  },
  {
    "name": "Eidsvold State School",
    "suburb": "EIDSVOLD",
    "state": "QLD",
    "postcode": "4627",
    "sector": "Government",
    "type": "Combined",
    "latitude": -25.3723,
    "longitude": 151.1212
  },
  {
    "name": "Roadvale State School",
    "suburb": "ROADVALE",
    "state": "QLD",
    "postcode": "4310",
    "sector": "Government",
    "type": "Primary",
    "latitude": -27.92052,
    "longitude": 152.705391
  },
  {
    "name": "Laura State School",
    "suburb": "LAURA",
    "state": "QLD",
    "postcode": "4892",
    "sector": "Government",
    "type": "Primary",
    "latitude": -15.557595,
    "longitude": 144.446956
  },
  {
    "name": "Watson Road State School",
    "suburb": "ACACIA RIDGE",
    "state": "QLD",
    "postcode": "4110",
    "sector": "Government",
    "type": "Primary",
    "latitude": -27.593297,
    "longitude": 153.017909
  },
  {
    "name": "Indooroopilly State School",
    "suburb": "INDOOROOPILLY",
    "state": "QLD",
    "postcode": "4068",
    "sector": "Government",
    "type": "Primary",
    "latitude": -27.5004,
    "longitude": 152.9655
  },
  {
    "name": "Cannonvale State School",
    "suburb": "CANNONVALE",
    "state": "QLD",
    "postcode": "4802",
    "sector": "Government",
    "type": "Primary",
    "latitude": -20.27508,
    "longitude": 148.699956
  },
  {
    "name": "Serviceton South State School",
    "suburb": "INALA",
    "state": "QLD",
    "postcode": "4077",
    "sector": "Government",
    "type": "Primary",
    "latitude": -27.606243,
    "longitude": 152.976601
  },