[
  {
    "name": "O'Connor Cooperative School",
    "suburb": "O'CONNOR",
    "state": "ACT",
    "postcode": "2602",
    "sector": "Government",
    "type": "Primary",
    "latitude": -35.261153,
    "longitude": 149.120241
  },
  {
    "name": "Erindale College",
    "suburb": "WANNIASSA",
    "state": "ACT",
    "postcode": "2903",
    "sector": "Government",
    "type": "Secondary",
    "latitude": -35.403049,
    "longitude": 149.096551
  },
  {
    "name": "Hawker College",
    "suburb": "HAWKER",
    "state": "ACT",
    "postcode": "2614",
    "sector": "Government",
    "type": "Secondary",
    "latitude": -35.245578,
    "longitude": 149.032519
  },
  {
    "name": "Narrabundah College",
    "suburb": "NARRABUNDAH",
    "state": "ACT",
    "postcode": "2604",
    "sector": "Government",
    "type": "Secondary",
    "latitude": -35.335969,
    "longitude": 149.147097
  },
  {
    "name": "Southern Cross Early Childhood School",
    "suburb": "SCULLIN",
    "state": "ACT",
    "postcode": "2614",
    "sector": "Government",
    "type": "Primary",
    "latitude": -35.2328,
    "longitude": 149.0384
  },
  {
    "name": "Lyons Early Childhood School",
    "suburb": "LYONS",
    "state": "ACT",
    "postcode": "2606",
    "sector": "Government",
    "type": "Primary",
    "latitude": -35.341633,
    "longitude": 149.076243
  },
  {
    "name": "Narrabundah Early Childhood School",
    "suburb": "NARRABUNDAH",
    "state": "ACT",
    "postcode": "2604",
    "sector": "Government",
    "type": "Primary",
    "latitude": -35.329016,
    "longitude": 149.150698
  },
  {
    "name": "Caroline Chisholm School",
    "suburb": "CHISHOLM",
    "state": "ACT",
    "postcode": "2905",
    "sector": "Government",
    "type": "Secondary",
    "latitude": -35.4182,
    "longitude": 149.122
  },
  {
    "name": "Isabella Plains Early Childhood School",
    "suburb": "ISABELLA PLAINS",
    "state": "ACT",
    "postcode": "2905",
    "sector": "Government",
    "type": "Primary",
    "latitude": -35.428716,
    "longitude": 149.089497
  },
  {
    "name": "The Canberra College",
    "suburb": "PHILLIP",
    "state": "ACT",
    "postcode": "2606",
    "sector": "Government",
    "type": "Secondary",
    "latitude": -35.3404,
    "longitude": 149.0883
  },
  {
    "name": "St Mary MacKillop College - Wanniassa Campus",
    "suburb": "WANNIASSA",
    "state": "ACT",
    "postcode": "2905",
    "sector": "Catholic",
    "type": "Secondary",
    "latitude": -35.4053,
    "longitude": 149.091
  },
  {
    "name": "Daramalan College",
    "suburb": "DICKSON",
    "state": "ACT",
    "postcode": "2602",
    "sector": "Independent",
    "type": "Secondary",
    "latitude": -35.2535,
    "longitude": 149.1387
  },
  {
    "name": "Marist College Canberra",
    "suburb": "PEARCE",
    "state": "ACT",
    "postcode": "2607",
    "sector": "Independent",
    "type": "Combined",
    "latitude": -35.3603,
    "longitude": 149.088
  },
  {
    "name": "St Edmund's College Canberra",
    "suburb": "GRIFFITH",
    "state": "ACT",
    "postcode": "2603",
    "sector": "Independent",
    "type": "Combined",
    "latitude": -35.323315,
    "longitude": 149.144412
  },
  {
    "name": "Canberra Grammar School - Northside Infants Campus",
    "suburb": "CAMPBELL",
    "state": "ACT",
    "postcode": "2612",
    "sector": "Independent",
    "type": "Primary",
    "latitude": -35.2853,
    "longitude": 149.1471
  },
  {
    "name": "Burgmann Anglican School - Forde Campus",
    "suburb": "FORDE",
    "state": "ACT",
    "postcode": "2914",
    "sector": "Independent",
    "type": "Combined",
    "latitude": -35.1699,
    "longitude": 149.1472
  },
  {
    "name": "Mother Teresa School",
    "suburb": "HARRISON",
    "state": "ACT",
    "postcode": "2914",
    "sector": "Catholic",
    "type": "Primary",
    "latitude": -35.19495163,
    "longitude": 149.15320486
  },
  {
    "name": "Amaroo School",
    "suburb": "AMAROO",
    "state": "ACT",
    "postcode": "2914",
    "sector": "Government",
    "type": "Combined",
    "latitude": -35.164592,
    "longitude": 149.12774
  },
  {
    "name": "Aranda Primary School",
    "suburb": "ARANDA",
    "state": "ACT",
    "postcode": "2614",
    "sector": "Government",
    "type": "Primary",
    "latitude": -35.255999,
    "longitude": 149.079914
  },
  {
    "name": "Belconnen High School",
    "suburb": "HAWKER",
    "state": "ACT",
    "postcode": "2614",
    "sector": "Government",
    "type": "Secondary",
    "latitude": -35.246957,
    "longitude": 149.039298
  },
  {
    "name": "Canberra High School",
    "suburb": "MACQUARIE",
    "state": "ACT",
    "postcode": "2614",
    "sector": "Government",
    "type": "Secondary",
    "latitude": -35.2513,
    "longitude": 149.0745
  },
  {
    "name": "Charnwood-Dunlop School",
    "suburb": "CHARNWOOD",
    "state": "ACT",
    "postcode": "2615",
    "sector": "Government",
    "type": "Primary",
    "latitude": -35.1987,
    "longitude": 149.0362
  },
  {
    "name": "Evatt Primary School",
    "suburb": "EVATT",
    "state": "ACT",
    "postcode": "2617",
    "sector": "Government",
    "type": "Primary",
    "latitude": -35.2071,
    "longitude": 149.0759
  },
  {
    "name": "Florey Primary School",
    "suburb": "FLOREY",
    "state": "ACT",
    "postcode": "2615",
    "sector": "Government",
    "type": "Primary",
    "latitude": -35.2265,
    "longitude": 149.0521
  },
  {
    "name": "Fraser Primary School",
    "suburb": "FRASER",
    "state": "ACT",
    "postcode": "2615",
    "sector": "Government",
    "type": "Primary",
    "latitude": -35.1918,
    "longitude": 149.0434
  },
  {
    "name": "Giralang Primary School",
    "suburb": "GIRALANG",
    "state": "ACT",
    "postcode": "2617",
    "sector": "Government",
    "type": "Primary",
    "latitude": -35.2137,
    "longitude": 149.0944
  },
  {
    "name": "Gold Creek School",
    "suburb": "NICHOLLS",
    "state": "ACT",
    "postcode": "2913",
    "sector": "Government",
    "type": "Combined",
    "latitude": -35.181275,
    "longitude": 149.100262
  },
  {
    "name": "Harrison School",
    "suburb": "HARRISON",
    "state": "ACT",
    "postcode": "2914",
    "sector": "Government",
    "type": "Combined",
    "latitude": -35.197531,
    "longitude": 149.151642
  },
  {
    "name": "Hawker Primary School",
    "suburb": "HAWKER",
    "state": "ACT",
    "postcode": "2614",
    "sector": "Government",
    "type": "Primary",
    "latitude": -35.25007119,
    "longitude": 149.03454992
  },
  {
    "name": "Jervis Bay School",
    "suburb": "JERVIS BAY",
    "state": "ACT",
    "postcode": "2540",
    "sector": "Government",
    "type": "Primary",
    "latitude": -35.1315414,
    "longitude": 150.7055651
  },
  {
    "name": "University of Canberra High School Kaleen",
    "suburb": "KALEEN",
    "state": "ACT",
    "postcode": "2617",
    "sector": "Government",
    "type": "Secondary",
    "latitude": -35.225083,
    "longitude": 149.1012
  },
  {
    "name": "Kaleen Primary School",
    "suburb": "KALEEN",
    "state": "ACT",
    "postcode": "2617",
    "sector": "Government",
    "type": "Primary",
    "latitude": -35.224835,
    "longitude": 149.11404
  },
  {
    "name": "University of Canberra Senior Secondary College Lake Ginninderra",
    "suburb": "BELCONNEN",
    "state": "ACT",
    "postcode": "2616",
    "sector": "Government",
    "type": "Secondary",
    "latitude": -35.239149,
    "longitude": 149.074161
  },
  {
    "name": "Latham Primary School",
    "suburb": "LATHAM",
    "state": "ACT",
    "postcode": "2615",
    "sector": "Government",
    "type": "Primary",
    "latitude": -35.220157,
    "longitude": 149.034298
  },
  {
    "name": "Macgregor Primary School",
    "suburb": "MACGREGOR",
    "state": "ACT",
    "postcode": "2615",
    "sector": "Government",
    "type": "Primary",
    "latitude": -35.213112,
    "longitude": 149.012349
  },
  {
    "name": "Macquarie Primary School",
    "suburb": "MACQUARIE",
    "state": "ACT",
    "postcode": "2614",
    "sector": "Government",
    "type": "Primary",
    "latitude": -35.250069,
    "longitude": 149.059393
  },
  {
    "name": "Maribyrnong Primary School",
    "suburb": "KALEEN",
    "state": "ACT",
    "postcode": "2617",
    "sector": "Government",
    "type": "Primary",
    "latitude": -35.235115,
    "longitude": 149.102261
  },
  {
    "name": "Melba Copland Secondary School Copland Campus Years 10 - 12",
    "suburb": "MELBA",
    "state": "ACT",
    "postcode": "2615",
    "sector": "Government",
    "type": "Secondary",
    "latitude": -35.21254,
    "longitude": 149.059794
  },
  {
    "name": "Miles Franklin Primary School",
    "suburb": "EVATT",
    "state": "ACT",
    "postcode": "2617",
    "sector": "Government",
    "type": "Primary",
    "latitude": -35.213295,
    "longitude": 149.066961
  },
  {
    "name": "Mount Rogers Primary School",
    "suburb": "MELBA",
    "state": "ACT",
    "postcode": "2615",
    "sector": "Government",
    "type": "Primary",
    "latitude": -35.208737,
    "longitude": 149.055621
  },
  {
    "name": "Ngunnawal Primary School",
    "suburb": "NGUNNAWAL",
    "state": "ACT",
    "postcode": "2913",
    "sector": "Government",
    "type": "Primary",
    "latitude": -35.169196,
    "longitude": 149.111784
  },
  {
    "name": "Palmerston District Primary School",
    "suburb": "PALMERSTON",
    "state": "ACT",
    "postcode": "2913",
    "sector": "Government",
    "type": "Primary",
    "latitude": -35.1975,
    "longitude": 149.120303
  },
  {
    "name": "Weetangera Primary School",
    "suburb": "WEETANGERA",
    "state": "ACT",
    "postcode": "2614",
    "sector": "Government",
    "type": "Primary",
    "latitude": -35.2518,
    "longitude": 149.0471
  },
  {
    "name": "Cranleigh School",
    "suburb": "HOLT",
    "state": "ACT",
    "postcode": "2615",
    "sector": "Government",
    "type": "Primary",
    "latitude": -35.2249,
    "longitude": 149.0291
  },
  {
    "name": "Kingsford Smith School",
    "suburb": "HOLT",
    "state": "ACT",
    "postcode": "2615",
    "sector": "Government",
    "type": "Combined",
    "latitude": -35.2277,
    "longitude": 149.0195
  },
  {
    "name": "Ainslie School",
    "suburb": "BRADDON",
    "state": "ACT",
    "postcode": "2612",
    "sector": "Government",
    "type": "Primary",
    "latitude": -35.273729,
    "longitude": 149.139632
  },
  {
    "name": "Alfred Deakin High School",
    "suburb": "DEAKIN",
    "state": "ACT",
    "postcode": "2600",
    "sector": "Government",
    "type": "Secondary",
    "latitude": -35.32433444,
    "longitude": 149.09509971
  },
  {
    "name": "Campbell High School",
    "suburb": "CAMPBELL",
    "state": "ACT",
    "postcode": "2612",
    "sector": "Government",
    "type": "Secondary",
    "latitude": -35.278101,
    "longitude": 149.147123
  },
  {
    "name": "Campbell Primary School",
    "suburb": "CAMPBELL",
    "state": "ACT",
    "postcode": "2612",
    "sector": "Government",
    "type": "Primary",
    "latitude": -35.2903,
    "longitude": 149.1561
  },
  {
    "name": "Curtin Primary School",
    "suburb": "CURTIN",
    "state": "ACT",
    "postcode": "2605",
    "sector": "Government",
    "type": "Primary",
    "latitude": -35.3317,
    "longitude": 149.0799
  },
  {
    "name": "Dickson College",
    "suburb": "DICKSON",
    "state": "ACT",
    "postcode": "2602",
    "sector": "Government",
    "type": "Secondary",
    "latitude": -35.2485,
    "longitude": 149.1541
  },
  {
    "name": "Farrer Primary School",
    "suburb": "FARRER",
    "state": "ACT",
    "postcode": "2607",
    "sector": "Government",
    "type": "Primary",
    "latitude": -35.3787,
    "longitude": 149.1071
  },
  {
    "name": "Forrest Primary School",
    "suburb": "FORREST",
    "state": "ACT",
    "postcode": "2603",
    "sector": "Government",
    "type": "Primary",
    "latitude": -35.3151,
    "longitude": 149.1262
  },
  {
    "name": "Garran Primary School",
    "suburb": "GARRAN",
    "state": "ACT",
    "postcode": "2605",
    "sector": "Government",
    "type": "Primary",
    "latitude": -35.3447,
    "longitude": 149.1033
  },
  {
    "name": "Hughes Primary School",
    "suburb": "HUGHES",
    "state": "ACT",
    "postcode": "2605",
    "sector": "Government",
    "type": "Primary",
    "latitude": -35.332248,
    "longitude": 149.093456
  },
  {
    "name": "Lyneham High School",
    "suburb": "LYNEHAM",
    "state": "ACT",
    "postcode": "2602",
    "sector": "Government",
    "type": "Secondary",
    "latitude": -35.252379,
    "longitude": 149.130653
  },
  {
    "name": "Lyneham Primary School",
    "suburb": "LYNEHAM",
    "state": "ACT",
    "postcode": "2602",
    "sector": "Government",
    "type": "Primary",
    "latitude": -35.25148,
    "longitude": 149.124974
  },
  {
    "name": "Majura Primary School",
    "suburb": "WATSON",
    "state": "ACT",
    "postcode": "2602",
    "sector": "Government",
    "type": "Primary",
    "latitude": -35.238509,
    "longitude": 149.15501
  },
  {
    "name": "Mawson Primary School",
    "suburb": "MAWSON",
    "state": "ACT",
    "postcode": "2607",
    "sector": "Government",
    "type": "Primary",
    "latitude": -35.358505,
    "longitude": 149.097655
  },
  {
    "name": "Melrose High School",
    "suburb": "PEARCE",
    "state": "ACT",
    "postcode": "2607",
    "sector": "Government",
    "type": "Secondary",
    "latitude": -35.363475,
    "longitude": 149.089434
  },
  {
    "name": "North Ainslie Primary School",
    "suburb": "AINSLIE",
    "state": "ACT",
    "postcode": "2602",
    "sector": "Government",
    "type": "Primary",
    "latitude": -35.255113,
    "longitude": 149.146358
  },
  {
    "name": "Red Hill Primary School",
    "suburb": "RED HILL",
    "state": "ACT",
    "postcode": "2603",
    "sector": "Government",
    "type": "Primary",
    "latitude": -35.3397,
    "longitude": 149.1329
  },
  {
    "name": "Telopea Park School",
    "suburb": "BARTON",
    "state": "ACT",
    "postcode": "2600",
    "sector": "Government",
    "type": "Combined",
    "latitude": -35.3138,
    "longitude": 149.1344
  },
  {
    "name": "Torrens Primary School",
    "suburb": "TORRENS",
    "state": "ACT",
    "postcode": "2607",
    "sector": "Government",
    "type": "Primary",
    "latitude": -35.37,
    "longitude": 149.0909
  },
  {
    "name": "Turner School",
    "suburb": "TURNER",
    "state": "ACT",
    "postcode": "2612",
    "sector": "Government",
    "type": "Primary",
    "latitude": -35.265,
    "longitude": 149.1261
  },
  {
    "name": "Yarralumla Primary School",
    "suburb": "YARRALUMLA",
    "state": "ACT",
    "postcode": "2600",
    "sector": "Government",
    "type": "Primary",
    "latitude": -35.3069,
    "longitude": 149.1032
  },
  {
    "name": "Black Mountain School",
    "suburb": "O'CONNOR",
    "state": "ACT",
    "postcode": "2602",
    "sector": "Government",
    "type": "Secondary",
    "latitude": -35.265224,
    "longitude": 149.112366
  },
  {
    "name": "Malkara School",
    "suburb": "GARRAN",
    "state": "ACT",
    "postcode": "2605",
    "sector": "Government",
    "type": "Primary",
    "latitude": -35.337447,
    "longitude": 149.09402
  },
  {
    "name": "The Woden School",
    "suburb": "DEAKIN",
    "state": "ACT",
    "postcode": "2600",
    "sector": "Government",
    "type": "Secondary",
    "latitude": -35.3266,
    "longitude": 149.0924
  },
  {
    "name": "Arawang Primary School",
    "suburb": "WARAMANGA",
    "state": "ACT",
    "postcode": "2611",
    "sector": "Government",
    "type": "Primary",
    "latitude": -35.355017,
    "longitude": 149.059719
  },
  {
    "name": "Bonython Primary School",
    "suburb": "BONYTHON",
    "state": "ACT",
    "postcode": "2905",
    "sector": "Government",
    "type": "Primary",
    "latitude": -35.431846,
    "longitude": 149.082604
  },
  {
    "name": "Calwell High School",
    "suburb": "CALWELL",
    "state": "ACT",
    "postcode": "2905",
    "sector": "Government",
    "type": "Secondary",
    "latitude": -35.4411,
    "longitude": 149.1176
  },
  {
    "name": "Calwell Primary School",
    "suburb": "CALWELL",
    "state": "ACT",
    "postcode": "2905",
    "sector": "Government",
    "type": "Primary",
    "latitude": -35.438412,
    "longitude": 149.109254
  },
  {
    "name": "Chapman Primary School",
    "suburb": "CHAPMAN",
    "state": "ACT",
    "postcode": "2611",
    "sector": "Government",
    "type": "Primary",
    "latitude": -35.3569,
    "longitude": 149.0431
  },
  {
    "name": "Charles Conder Primary School",
    "suburb": "CONDER",
    "state": "ACT",
    "postcode": "2906",
    "sector": "Government",
    "type": "Primary",
    "latitude": -35.4649,
    "longitude": 149.0984
  },
  {
    "name": "Duffy Primary School",
    "suburb": "DUFFY",
    "state": "ACT",
    "postcode": "2611",
    "sector": "Government",
    "type": "Primary",
    "latitude": -35.3342,
    "longitude": 149.0337
  },
  {
    "name": "Fadden Primary School",
    "suburb": "FADDEN",
    "state": "ACT",
    "postcode": "2904",
    "sector": "Government",
    "type": "Primary",
    "latitude": -35.4043,
    "longitude": 149.1182
  },
  {
    "name": "Gilmore Primary School",
    "suburb": "GILMORE",
    "state": "ACT",
    "postcode": "2905",
    "sector": "Government",
    "type": "Primary",
    "latitude": -35.4195,
    "longitude": 149.1356
  },
  {
    "name": "Gordon Primary School",
    "suburb": "GORDON",
    "state": "ACT",
    "postcode": "2906",
    "sector": "Government",
    "type": "Primary",
    "latitude": -35.455517,
    "longitude": 149.086978
  },
  {
    "name": "Gowrie Primary School",
    "suburb": "GOWRIE",
    "state": "ACT",
    "postcode": "2904",
    "sector": "Government",
    "type": "Primary",
    "latitude": -35.413608,
    "longitude": 149.110565
  },
  {
    "name": "Lake Tuggeranong College",
    "suburb": "GREENWAY",
    "state": "ACT",
    "postcode": "2900",
    "sector": "Government",
    "type": "Secondary",
    "latitude": -35.413803,
    "longitude": 149.068195
  },
  {
    "name": "Lanyon High School",
    "suburb": "CONDER",
    "state": "ACT",
    "postcode": "2906",
    "sector": "Government",
    "type": "Secondary",
    "latitude": -35.460389,
    "longitude": 149.09507
  },
  {
    "name": "Monash Primary School",
    "suburb": "MONASH",
    "state": "ACT",
    "postcode": "2904",
    "sector": "Government",
    "type": "Primary",
    "latitude": -35.414879,
    "longitude": 149.089411
  },
  {
    "name": "Richardson Primary School",
    "suburb": "RICHARDSON",
    "state": "ACT",
    "postcode": "2905",
    "sector": "Government",
    "type": "Primary",
    "latitude": -35.4289,
    "longitude": 149.1139
  },
  {
    "name": "Mount Stromlo High School",
    "suburb": "WARAMANGA",
    "state": "ACT",
    "postcode": "2611",
    "sector": "Government",
    "type": "Secondary",
    "latitude": -35.35492667487493,
    "longitude": 149.054492185542
  },
  {
    "name": "Taylor Primary School",
    "suburb": "KAMBAH",
    "state": "ACT",
    "postcode": "2902",
    "sector": "Government",
    "type": "Primary",
    "latitude": -35.3783,
    "longitude": 149.0643
  },
  {
    "name": "Theodore Primary School",
    "suburb": "THEODORE",
    "state": "ACT",
    "postcode": "2905",
    "sector": "Government",
    "type": "Primary",
    "latitude": -35.4477,
    "longitude": 149.124
  },
  {
    "name": "Wanniassa Hills Primary School",
    "suburb": "WANNIASSA",
    "state": "ACT",
    "postcode": "2903",
    "sector": "Government",
    "type": "Primary",
    "latitude": -35.3931,
    "longitude": 149.0959
  },
  {
    "name": "Wanniassa School",
    "suburb": "WANNIASSA",
    "state": "ACT",
    "postcode": "2903",
    "sector": "Government",
    "type": "Secondary",
    "latitude": -35.396874,
    "longitude": 149.085615
  },
  {
    "name": "Wanniassa School - Junior Campus",
    "suburb": "WANNIASSA",
    "state": "ACT",
    "postcode": "2903",
    "sector": "Government",
    "type": "Primary",
    "latitude": -35.3982,
    "longitude": 149.086
  },
  {
    "name": "Good Shepherd Primary School",
    "suburb": "AMAROO",
    "state": "ACT",
    "postcode": "2914",
    "sector": "Catholic",
    "type": "Primary",
    "latitude": -35.16517,
    "longitude": 149.124995
  },
  {
    "name": "Holy Family Primary School",
    "suburb": "GOWRIE",
    "state": "ACT",
    "postcode": "2904",
    "sector": "Catholic",
    "type": "Primary",
    "latitude": -35.410301,
    "longitude": 149.116552
  },
  {
    "name": "Holy Spirit Primary School",
    "suburb": "NICHOLLS",
    "state": "ACT",
    "postcode": "2913",
    "sector": "Catholic",
    "type": "Primary",
    "latitude": -35.180246,
    "longitude": 149.101809
  },
  {
    "name": "Holy Trinity Primary School",
    "suburb": "CURTIN",
    "state": "ACT",
    "postcode": "2605",
    "sector": "Catholic",
    "type": "Primary",
    "latitude": -35.327679,
    "longitude": 149.081951
  },
  {
    "name": "St Mary MacKillop College",
    "suburb": "ISABELLA PLAINS",
    "state": "ACT",
    "postcode": "2905",
    "sector": "Catholic",
    "type": "Secondary",
    "latitude": -35.4249,
    "longitude": 149.093
  },
  {
    "name": "Merici College",
    "suburb": "BRADDON",
    "state": "ACT",
    "postcode": "2612",
    "sector": "Catholic",
    "type": "Secondary",
    "latitude": -35.26684099,
    "longitude": 149.13679296
  },
  {
    "name": "Rosary Primary School",
    "suburb": "WATSON",
    "state": "ACT",
    "postcode": "2602",
    "sector": "Catholic",
    "type": "Primary",
    "latitude": -35.245015,
    "longitude": 149.155616
  },
  {
    "name": "Sacred Heart Primary School",
    "suburb": "PEARCE",
    "state": "ACT",
    "postcode": "2607",
    "sector": "Catholic",
    "type": "Primary",
    "latitude": -35.3669,
    "longitude": 149.0844
  },
  {
    "name": "St Anthony's Parish Primary School",
    "suburb": "WANNIASSA",
    "state": "ACT",
    "postcode": "2903",
    "sector": "Catholic",
    "type": "Primary",
    "latitude": -35.394,
    "longitude": 149.0801
  },
  {
    "name": "St Bede's Primary School",
    "suburb": "RED HILL",
    "state": "ACT",
    "postcode": "2603",
    "sector": "Catholic",
    "type": "Primary",
    "latitude": -35.3388,
    "longitude": 149.1288
  },
  {
    "name": "St Benedict's Primary School",
    "suburb": "NARRABUNDAH",
    "state": "ACT",
    "postcode": "2604",
    "sector": "Catholic",
    "type": "Primary",
    "latitude": -35.3348,
    "longitude": 149.148
  },
  {
    "name": "St Clare of Assisi Primary School",
    "suburb": "CONDER",
    "state": "ACT",
    "postcode": "2906",
    "sector": "Catholic",
    "type": "Primary",
    "latitude": -35.459106,
    "longitude": 149.096124
  },
  {
    "name": "St Clare's College",
    "suburb": "GRIFFITH",
    "state": "ACT",
    "postcode": "2603",
    "sector": "Catholic",
    "type": "Secondary",
    "latitude": -35.3239,
    "longitude": 149.1477
  },
  {
    "name": "St Francis of Assisi Primary School",
    "suburb": "CALWELL",
    "state": "ACT",
    "postcode": "2905",
    "sector": "Catholic",
    "type": "Primary",
    "latitude": -35.4408,
    "longitude": 149.1196
  },
  {
    "name": "St Francis Xavier College",
    "suburb": "FLOREY",
    "state": "ACT",
    "postcode": "2615",
    "sector": "Catholic",
    "type": "Secondary",
    "latitude": -35.224,
    "longitude": 149.0406
  },
  {
    "name": "St John the Apostle Primary School",
    "suburb": "FLOREY",
    "state": "ACT",
    "postcode": "2615",
    "sector": "Catholic",
    "type": "Primary",
    "latitude": -35.226387,
    "longitude": 149.041793
  },
  {
    "name": "St John Vianney's Primary School",
    "suburb": "WARAMANGA",
    "state": "ACT",
    "postcode": "2611",
    "sector": "Catholic",
    "type": "Primary",
    "latitude": -35.35183556,
    "longitude": 149.05501951
  },
  {
    "name": "St Joseph's Primary School",
    "suburb": "O'CONNOR",
    "state": "ACT",
    "postcode": "2602",
    "sector": "Catholic",
    "type": "Primary",
    "latitude": -35.2596,
    "longitude": 149.1264
  },
  {
    "name": "St Jude's Primary School",
    "suburb": "HOLDER",
    "state": "ACT",
    "postcode": "2611",
    "sector": "Catholic",
    "type": "Primary",
    "latitude": -35.3339331,
    "longitude": 149.05045994
  },
  {
    "name": "St Matthew's Primary School",
    "suburb": "PAGE",
    "state": "ACT",
    "postcode": "2614",
    "sector": "Catholic",
    "type": "Primary",
    "latitude": -35.2408,
    "longitude": 149.0416
  },
  {
    "name": "St Michael's Primary School",
    "suburb": "KALEEN",
    "state": "ACT",
    "postcode": "2617",
    "sector": "Catholic",
    "type": "Primary",
    "latitude": -35.2235,
    "longitude": 149.1097
  },
  {
    "name": "St Monica's Primary School",
    "suburb": "EVATT",
    "state": "ACT",
    "postcode": "2617",
    "sector": "Catholic",
    "type": "Primary",
    "latitude": -35.21349493,
    "longitude": 149.06138563
  },
  {
    "name": "St Thomas Aquinas Primary School",
    "suburb": "CHARNWOOD",
    "state": "ACT",
    "postcode": "2615",
    "sector": "Catholic",
    "type": "Primary",
    "latitude": -35.2051,
    "longitude": 149.0296
  },
  {
    "name": "St Thomas More's Primary School",
    "suburb": "CAMPBELL",
    "state": "ACT",
    "postcode": "2612",
    "sector": "Catholic",
    "type": "Primary",
    "latitude": -35.28712,
    "longitude": 149.155404
  },
  {
    "name": "St Thomas the Apostle Primary School",
    "suburb": "KAMBAH",
    "state": "ACT",
    "postcode": "2902",
    "sector": "Catholic",
    "type": "Primary",
    "latitude": -35.38060036,
    "longitude": 149.05297105
  },
  {
    "name": "St Vincent's Primary School",
    "suburb": "ARANDA",
    "state": "ACT",
    "postcode": "2614",
    "sector": "Catholic",
    "type": "Primary",
    "latitude": -35.255025,
    "longitude": 149.076332
  },
  {
    "name": "Sts Peter and Paul Primary School",
    "suburb": "GARRAN",
    "state": "ACT",
    "postcode": "2605",
    "sector": "Catholic",
    "type": "Primary",
    "latitude": -35.339253,
    "longitude": 149.093335
  },
  {
    "name": "Blue Gum Community School",
    "suburb": "HACKETT",
    "state": "ACT",
    "postcode": "2602",
    "sector": "Independent",
    "type": "Combined",
    "latitude": -35.250368,
    "longitude": 149.1629
  },
  {
    "name": "Brindabella Christian College",
    "suburb": "LYNEHAM",
    "state": "ACT",
    "postcode": "2602",
    "sector": "Independent",
    "type": "Combined",
    "latitude": -35.249,
    "longitude": 149.128
  },
  {
    "name": "Burgmann Anglican School",
    "suburb": "GUNGAHLIN",
    "state": "ACT",
    "postcode": "2912",
    "sector": "Independent",
    "type": "Combined",
    "latitude": -35.188529,
    "longitude": 149.123672
  },
  {
    "name": "Canberra Christian School",
    "suburb": "MAWSON",
    "state": "ACT",
    "postcode": "2607",
    "sector": "Independent",
    "type": "Primary",
    "latitude": -35.356475,
    "longitude": 149.097963
  },
  {
    "name": "Canberra Girls Grammar School - Junior School",
    "suburb": "DEAKIN",
    "state": "ACT",
    "postcode": "2600",
    "sector": "Independent",
    "type": "Primary",
    "latitude": -35.3121,
    "longitude": 149.1108
  },
  {
    "name": "Canberra Girls Grammar School",
    "suburb": "DEAKIN",
    "state": "ACT",
    "postcode": "2600",
    "sector": "Independent",
    "type": "Secondary",
    "latitude": -35.317,
    "longitude": 149.1151
  },
  {
    "name": "Canberra Grammar School - Primary School",
    "suburb": "RED HILL",
    "state": "ACT",
    "postcode": "2603",
    "sector": "Independent",
    "type": "Primary",
    "latitude": -35.3323,
    "longitude": 149.1247
  },
  {
    "name": "Canberra Grammar School",
    "suburb": "RED HILL",
    "state": "ACT",
    "postcode": "2603",
    "sector": "Independent",
    "type": "Secondary",
    "latitude": -35.32981254,
    "longitude": 149.12824683
  },
  {
    "name": "Canberra Montessori School",
    "suburb": "HOLDER",
    "state": "ACT",
    "postcode": "2611",
    "sector": "Independent",
    "type": "Primary",
    "latitude": -35.3322,
    "longitude": 149.0511
  },
  {
    "name": "Covenant Christian School",
    "suburb": "GORDON",
    "state": "ACT",
    "postcode": "2906",
    "sector": "Independent",
    "type": "Combined",
    "latitude": -35.4402268015199,
    "longitude": 149.089922317505
  },
  {
    "name": "Emmaus Christian School",
    "suburb": "DICKSON",
    "state": "ACT",
    "postcode": "2602",
    "sector": "Independent",
    "type": "Combined",
    "latitude": -35.2534,
    "longitude": 149.1428
  },
  {
    "name": "Islamic School of Canberra",
    "suburb": "WESTON",
    "state": "ACT",
    "postcode": "2611",
    "sector": "Independent",
    "type": "Combined",
    "latitude": -35.329825,
    "longitude": 149.059467
  },
  {
    "name": "Orana Steiner School",
    "suburb": "WESTON",
    "state": "ACT",
    "postcode": "2611",
    "sector": "Independent",
    "type": "Combined",
    "latitude": -35.327048,
    "longitude": 149.060215
  },
  {
    "name": "Radford College",
    "suburb": "BRUCE",
    "state": "ACT",
    "postcode": "2617",
    "sector": "Independent",
    "type": "Combined",
    "latitude": -35.24489829,
    "longitude": 149.08718484
  },
  {
    "name": "Communities@Work Galilee School",
    "suburb": "KAMBAH",
    "state": "ACT",
    "postcode": "2902",
    "sector": "Independent",
    "type": "Secondary",
    "latitude": -35.38649263,
    "longitude": 149.03083919
  },
  {
    "name": "Trinity Christian School",
    "suburb": "WANNIASSA",
    "state": "ACT",
    "postcode": "2903",
    "sector": "Independent",
    "type": "Combined",
    "latitude": -35.4083,
    "longitude": 149.0861
  },
  {
    "name": "Caroline Chisholm School - Junior Campus",
    "suburb": "CHISHOLM",
    "state": "ACT",
    "postcode": "2905",
    "sector": "Government",
    "type": "Primary",
    "latitude": -35.4182,
    "longitude": 149.122
  },
  {
    "name": "Namadgi School",
    "suburb": "KAMBAH",
    "state": "ACT",
    "postcode": "2902",
    "sector": "Government",
    "type": "Combined",
    "latitude": -35.39262555,
    "longitude": 149.06839016
  },
  {
    "name": "Gungahlin College",
    "suburb": "GUNGAHLIN",
    "state": "ACT",
    "postcode": "2912",
    "sector": "Government",
    "type": "Secondary",
    "latitude": -35.18567606,
    "longitude": 149.13109859
  },
  {
    "name": "Melba Copland Secondary School Copland Campus Years 7 - 9",
    "suburb": "MELBA",
    "state": "ACT",
    "postcode": "2615",
    "sector": "Government",
    "type": "Secondary",
    "latitude": -35.21254,
    "longitude": 149.059794
  },
  {
    "name": "Neville Bonner Primary School",
    "suburb": "BONNER",
    "state": "ACT",
    "postcode": "2914",
    "sector": "Government",
    "type": "Primary",
    "latitude": -35.162012,
    "longitude": 149.1404343
  },
  {
    "name": "Franklin School",
    "suburb": "FRANKLIN",
    "state": "ACT",
    "postcode": "2913",
    "sector": "Government",
    "type": "Primary",
    "latitude": -35.1965004,
    "longitude": 149.1447223
  },
  {
    "name": "St John Paul II College",
    "suburb": "NICHOLLS",
    "state": "ACT",
    "postcode": "2913",
    "sector": "Catholic",
    "type": "Secondary",
    "latitude": -35.1775579,
    "longitude": 149.10102177
  },
  {
    "name": "Brindabella Christian College - Charnwood campus",
    "suburb": "CHARNWOOD",
    "state": "ACT",
    "postcode": "2615",
    "sector": "Independent",
    "type": "Primary",
    "latitude": -35.203392,
    "longitude": 149.030161
  },
  {
    "name": "Taqwa School",
    "suburb": "Moncrieff",
    "state": "ACT",
    "postcode": "2914",
    "sector": "Independent",
    "type": "Combined",
    "latitude": -35.1556696636672,
    "longitude": 149.1190517
  },
  {
    "name": "Charles Weston School",
    "suburb": "COOMBS",
    "state": "ACT",
    "postcode": "2611",
    "sector": "Government",
    "type": "Primary",
    "latitude": -35.320568,
    "longitude": 149.040625
  },
  {
    "name": "Margaret Hendry School",
    "suburb": "TAYLOR",
    "state": "ACT",
    "postcode": "2913",
    "sector": "Government",
    "type": "Primary",
    "latitude": -35.1518563839374,
    "longitude": 149.113569197097
  },
  {
    "name": "Communities@Work Galilee School - Holder Campus",
    "suburb": "HOLDER",
    "state": "ACT",
    "postcode": "2611",
    "sector": "Independent",
    "type": "Secondary",
    "latitude": -35.329998,
    "longitude": 149.050229
  },
  {
    "name": "Evelyn Scott School",
    "suburb": "DENMAN PROSPECT",
    "state": "ACT",
    "postcode": "2611",
    "sector": "Government",
    "type": "Combined",
    "latitude": -35.3064,
    "longitude": 149.026739
  },
  {
    "name": "Throsby School",
    "suburb": "THROSBY",
    "state": "ACT",
    "postcode": "2914",
    "sector": "Government",
    "type": "Primary",
    "latitude": -35.1935087,
    "longitude": 149.1653391
  },
  {
    "name": "Shirley Smith High School",
    "suburb": "KENNY",
    "state": "ACT",
    "postcode": "2911",
    "sector": "Government",
    "type": "Secondary",
    "latitude": -35.2101579,
    "longitude": 149.1539733
  },
  {
    "name": "Aunty Agnes Shea High School",
    "suburb": "TAYLOR",
    "state": "ACT",
    "postcode": "2913",
    "sector": "Government",
    "type": "Secondary",
    "latitude": -35.1485156540474,
    "longitude": 149.110393718971
  },
  {
    "name": "Stromlo Forest Anglican College",
    "suburb": "WRIGHT",
    "state": "ACT",
    "postcode": "2611",
    "sector": "Independent",
    "type": "Combined",
    "latitude": -35.3141918500431,
    "longitude": 149.030864760638
  }
]